[
{"id":"0001","lat":43.05546,"lon":141.340956,"pref":"北海道","city":"札幌市中央区"},
{"id":"0002","lat":43.09085,"lon":141.340831,"pref":"北海道","city":"札幌市北区"},
{"id":"0003","lat":43.076069,"lon":141.363722,"pref":"北海道","city":"札幌市東区"},
{"id":"0004","lat":43.047687,"lon":141.405078,"pref":"北海道","city":"札幌市白石区"},
{"id":"0005","lat":43.031291,"lon":141.380106,"pref":"北海道","city":"札幌市豊平区"},
{"id":"0006","lat":42.990031,"lon":141.353497,"pref":"北海道","city":"札幌市南区"},
{"id":"0007","lat":43.07447,"lon":141.300889,"pref":"北海道","city":"札幌市西区"},
{"id":"0008","lat":43.036408,"lon":141.474789,"pref":"北海道","city":"札幌市厚別区"},
{"id":"0009","lat":43.121944,"lon":141.245632,"pref":"北海道","city":"札幌市手稲区"},
{"id":"0010","lat":42.999636,"lon":141.44383,"pref":"北海道","city":"札幌市清田区"},
{"id":"0011","lat":41.768793,"lon":140.72881,"pref":"北海道","city":"函館市"},
{"id":"0012","lat":43.190717,"lon":140.994662,"pref":"北海道","city":"小樽市"},
{"id":"0013","lat":43.770636,"lon":142.364819,"pref":"北海道","city":"旭川市"},
{"id":"0014","lat":42.315231,"lon":140.973799,"pref":"北海道","city":"室蘭市"},
{"id":"0015","lat":42.984854,"lon":144.381356,"pref":"北海道","city":"釧路市"},
{"id":"0016","lat":42.923899,"lon":143.196103,"pref":"北海道","city":"帯広市"},
{"id":"0017","lat":43.804031,"lon":143.895876,"pref":"北海道","city":"北見市"},
{"id":"0018","lat":43.056734,"lon":141.973896,"pref":"北海道","city":"夕張市"},
{"id":"0019","lat":43.196206,"lon":141.775933,"pref":"北海道","city":"岩見沢市"},
{"id":"0020","lat":44.020632,"lon":144.273398,"pref":"北海道","city":"網走市"},
{"id":"0021","lat":43.940987,"lon":141.637012,"pref":"北海道","city":"留萌市"},
{"id":"0022","lat":42.634302,"lon":141.605372,"pref":"北海道","city":"苫小牧市"},
{"id":"0023","lat":45.415664,"lon":141.673082,"pref":"北海道","city":"稚内市"},
{"id":"0024","lat":43.332881,"lon":141.853785,"pref":"北海道","city":"美唄市"},
{"id":"0025","lat":43.518166,"lon":142.189436,"pref":"北海道","city":"芦別市"},
{"id":"0026","lat":43.103745,"lon":141.536247,"pref":"北海道","city":"江別市"},
{"id":"0027","lat":43.558074,"lon":142.044211,"pref":"北海道","city":"赤平市"},
{"id":"0028","lat":44.356484,"lon":143.354503,"pref":"北海道","city":"紋別市"},
{"id":"0029","lat":44.178734,"lon":142.400404,"pref":"北海道","city":"士別市"},
{"id":"0030","lat":44.355938,"lon":142.463167,"pref":"北海道","city":"名寄市"},
{"id":"0031","lat":43.245435,"lon":141.875327,"pref":"北海道","city":"三笠市"},
{"id":"0032","lat":43.330076,"lon":145.58279,"pref":"北海道","city":"根室市"},
{"id":"0033","lat":42.820958,"lon":141.650876,"pref":"北海道","city":"千歳市"},
{"id":"0034","lat":43.557795,"lon":141.91019,"pref":"北海道","city":"滝川市"},
{"id":"0035","lat":43.494843,"lon":141.903465,"pref":"北海道","city":"砂川市"},
{"id":"0036","lat":43.521353,"lon":142.034568,"pref":"北海道","city":"歌志内市"},
{"id":"0037","lat":43.72326,"lon":142.053538,"pref":"北海道","city":"深川市"},
{"id":"0038","lat":43.34214,"lon":142.383225,"pref":"北海道","city":"富良野市"},
{"id":"0039","lat":42.41276,"lon":141.106632,"pref":"北海道","city":"登別市"},
{"id":"0040","lat":42.882562,"lon":141.577815,"pref":"北海道","city":"恵庭市"},
{"id":"0041","lat":42.471851,"lon":140.864679,"pref":"北海道","city":"伊達市"},
{"id":"0042","lat":42.98563,"lon":141.563543,"pref":"北海道","city":"北広島市"},
{"id":"0043","lat":43.171384,"lon":141.31552,"pref":"北海道","city":"石狩市"},
{"id":"0044","lat":41.82406,"lon":140.652903,"pref":"北海道","city":"北斗市"},
{"id":"0045","lat":43.223683,"lon":141.517072,"pref":"北海道","city":"石狩郡当別町"},
{"id":"0046","lat":43.225424,"lon":141.649216,"pref":"北海道","city":"石狩郡新篠津村"},
{"id":"0047","lat":41.430037,"lon":140.110435,"pref":"北海道","city":"松前郡松前町"},
{"id":"0048","lat":41.483802,"lon":140.251326,"pref":"北海道","city":"松前郡福島町"},
{"id":"0049","lat":41.598356,"lon":140.418963,"pref":"北海道","city":"上磯郡知内町"},
{"id":"0050","lat":41.678264,"lon":140.437568,"pref":"北海道","city":"上磯郡木古内町"},
{"id":"0051","lat":41.89572,"lon":140.69428,"pref":"北海道","city":"亀田郡七飯町"},
{"id":"0052","lat":42.038487,"lon":140.815939,"pref":"北海道","city":"茅部郡鹿部町"},
{"id":"0053","lat":42.104795,"lon":140.576324,"pref":"北海道","city":"茅部郡森町"},
{"id":"0054","lat":42.255999,"lon":140.265281,"pref":"北海道","city":"二海郡八雲町"},
{"id":"0055","lat":42.513688,"lon":140.380633,"pref":"北海道","city":"山越郡長万部町"},
{"id":"0056","lat":41.869156,"lon":140.12746,"pref":"北海道","city":"檜山郡江差町"},
{"id":"0057","lat":41.801082,"lon":140.121348,"pref":"北海道","city":"檜山郡上ノ国町"},
{"id":"0058","lat":41.920901,"lon":140.225472,"pref":"北海道","city":"檜山郡厚沢部町"},
{"id":"0059","lat":41.968501,"lon":140.135719,"pref":"北海道","city":"爾志郡乙部町"},
{"id":"0060","lat":42.172278,"lon":139.514008,"pref":"北海道","city":"奥尻郡奥尻町"},
{"id":"0061","lat":42.429422,"lon":140.008878,"pref":"北海道","city":"瀬棚郡今金町"},
{"id":"0062","lat":42.417161,"lon":139.882988,"pref":"北海道","city":"久遠郡せたな町"},
{"id":"0063","lat":42.70052,"lon":140.06146,"pref":"北海道","city":"島牧郡島牧村"},
{"id":"0064","lat":42.790979,"lon":140.22898,"pref":"北海道","city":"寿都郡寿都町"},
{"id":"0065","lat":42.667864,"lon":140.30754,"pref":"北海道","city":"寿都郡黒松内町"},
{"id":"0066","lat":42.809075,"lon":140.528312,"pref":"北海道","city":"磯谷郡蘭越町"},
{"id":"0067","lat":42.804705,"lon":140.687493,"pref":"北海道","city":"虻田郡ニセコ町"},
{"id":"0068","lat":42.762971,"lon":140.803744,"pref":"北海道","city":"虻田郡真狩村"},
{"id":"0069","lat":42.73736,"lon":140.875591,"pref":"北海道","city":"虻田郡留寿都村"},
{"id":"0070","lat":42.795472,"lon":140.9345,"pref":"北海道","city":"虻田郡喜茂別町"},
{"id":"0071","lat":42.858208,"lon":140.884088,"pref":"北海道","city":"虻田郡京極町"},
{"id":"0072","lat":42.901829,"lon":140.758698,"pref":"北海道","city":"虻田郡倶知安町"},
{"id":"0073","lat":42.583447,"lon":140.711832,"pref":"北海道","city":"虻田郡豊浦町"},
{"id":"0074","lat":42.551269,"lon":140.764098,"pref":"北海道","city":"虻田郡洞爺湖町"},
{"id":"0075","lat":42.980398,"lon":140.611187,"pref":"北海道","city":"岩内郡共和町"},
{"id":"0076","lat":42.979785,"lon":140.514753,"pref":"北海道","city":"岩内郡岩内町"},
{"id":"0077","lat":43.063355,"lon":140.498859,"pref":"北海道","city":"古宇郡泊村"},
{"id":"0078","lat":43.143813,"lon":140.430742,"pref":"北海道","city":"古宇郡神恵内村"},
{"id":"0079","lat":43.298853,"lon":140.598193,"pref":"北海道","city":"積丹郡積丹町"},
{"id":"0080","lat":43.26536,"lon":140.63882,"pref":"北海道","city":"古平郡古平町"},
{"id":"0081","lat":43.151691,"lon":140.76613,"pref":"北海道","city":"余市郡仁木町"},
{"id":"0082","lat":43.195232,"lon":140.783467,"pref":"北海道","city":"余市郡余市町"},
{"id":"0083","lat":43.08349,"lon":140.813481,"pref":"北海道","city":"余市郡赤井川村"},
{"id":"0084","lat":43.063727,"lon":141.650069,"pref":"北海道","city":"空知郡南幌町"},
{"id":"0085","lat":43.425106,"lon":141.882788,"pref":"北海道","city":"空知郡奈井江町"},
{"id":"0086","lat":43.482608,"lon":141.984084,"pref":"北海道","city":"空知郡上砂川町"},
{"id":"0087","lat":43.455661,"lon":142.467073,"pref":"北海道","city":"空知郡上富良野町"},
{"id":"0088","lat":43.405671,"lon":142.425136,"pref":"北海道","city":"空知郡中富良野町"},
{"id":"0089","lat":43.163979,"lon":142.568488,"pref":"北海道","city":"空知郡南富良野町"},
{"id":"0090","lat":42.999605,"lon":141.790338,"pref":"北海道","city":"夕張郡由仁町"},
{"id":"0091","lat":43.010353,"lon":141.695252,"pref":"北海道","city":"夕張郡長沼町"},
{"id":"0092","lat":43.056309,"lon":141.784255,"pref":"北海道","city":"夕張郡栗山町"},
{"id":"0093","lat":43.338436,"lon":141.669451,"pref":"北海道","city":"樺戸郡月形町"},
{"id":"0094","lat":43.430322,"lon":141.818837,"pref":"北海道","city":"樺戸郡浦臼町"},
{"id":"0095","lat":43.548547,"lon":141.877032,"pref":"北海道","city":"樺戸郡新十津川町"},
{"id":"0096","lat":43.700112,"lon":141.961711,"pref":"北海道","city":"雨竜郡妹背牛町"},
{"id":"0097","lat":43.767013,"lon":141.957958,"pref":"北海道","city":"雨竜郡秩父別町"},
{"id":"0098","lat":43.643924,"lon":141.88899,"pref":"北海道","city":"雨竜郡雨竜町"},
{"id":"0099","lat":43.731356,"lon":141.879022,"pref":"北海道","city":"雨竜郡北竜町"},
{"id":"0100","lat":43.806802,"lon":141.933272,"pref":"北海道","city":"雨竜郡沼田町"},
{"id":"0101","lat":44.009854,"lon":142.153933,"pref":"北海道","city":"雨竜郡幌加内町"},
{"id":"0102","lat":43.843353,"lon":142.354451,"pref":"北海道","city":"上川郡鷹栖町"},
{"id":"0103","lat":43.696626,"lon":142.451437,"pref":"北海道","city":"上川郡東神楽町"},
{"id":"0104","lat":43.828177,"lon":142.508366,"pref":"北海道","city":"上川郡当麻町"},
{"id":"0105","lat":43.875076,"lon":142.477552,"pref":"北海道","city":"上川郡比布町"},
{"id":"0106","lat":43.906504,"lon":142.577973,"pref":"北海道","city":"上川郡愛別町"},
{"id":"0107","lat":43.84718,"lon":142.770431,"pref":"北海道","city":"上川郡上川町"},
{"id":"0108","lat":43.698974,"lon":142.510317,"pref":"北海道","city":"上川郡東川町"},
{"id":"0109","lat":43.588187,"lon":142.466972,"pref":"北海道","city":"上川郡美瑛町"},
{"id":"0110","lat":44.023068,"lon":142.413306,"pref":"北海道","city":"上川郡和寒町"},
{"id":"0111","lat":44.095677,"lon":142.361221,"pref":"北海道","city":"上川郡剣淵町"},
{"id":"0112","lat":44.302503,"lon":142.635308,"pref":"北海道","city":"上川郡下川町"},
{"id":"0113","lat":43.079796,"lon":142.838737,"pref":"北海道","city":"上川郡新得町"},
{"id":"0114","lat":43.011356,"lon":142.88454,"pref":"北海道","city":"上川郡清水町"},
{"id":"0115","lat":42.979779,"lon":142.398357,"pref":"北海道","city":"勇払郡占冠村"},
{"id":"0116","lat":42.723662,"lon":141.877935,"pref":"北海道","city":"勇払郡厚真町"},
{"id":"0117","lat":42.762815,"lon":141.818017,"pref":"北海道","city":"勇払郡安平町"},
{"id":"0118","lat":42.574807,"lon":141.92675,"pref":"北海道","city":"勇払郡むかわ町"},
{"id":"0119","lat":44.481126,"lon":142.343014,"pref":"北海道","city":"中川郡美深町"},
{"id":"0120","lat":44.725004,"lon":142.262464,"pref":"北海道","city":"中川郡音威子府村"},
{"id":"0121","lat":44.811346,"lon":142.071438,"pref":"北海道","city":"中川郡中川町"},
{"id":"0122","lat":42.908234,"lon":143.355969,"pref":"北海道","city":"中川郡幕別町"},
{"id":"0123","lat":42.928955,"lon":143.448355,"pref":"北海道","city":"中川郡池田町"},
{"id":"0124","lat":42.801052,"lon":143.505919,"pref":"北海道","city":"中川郡豊頃町"},
{"id":"0125","lat":43.124712,"lon":143.610573,"pref":"北海道","city":"中川郡本別町"},
{"id":"0126","lat":43.856033,"lon":141.525198,"pref":"北海道","city":"増毛郡増毛町"},
{"id":"0127","lat":44.015108,"lon":141.662575,"pref":"北海道","city":"留萌郡小平町"},
{"id":"0128","lat":44.30604,"lon":141.653022,"pref":"北海道","city":"苫前郡苫前町"},
{"id":"0129","lat":44.360683,"lon":141.69725,"pref":"北海道","city":"苫前郡羽幌町"},
{"id":"0130","lat":44.532154,"lon":141.766409,"pref":"北海道","city":"苫前郡初山別村"},
{"id":"0131","lat":44.722139,"lon":141.792369,"pref":"北海道","city":"天塩郡遠別町"},
{"id":"0132","lat":44.888341,"lon":141.745397,"pref":"北海道","city":"天塩郡天塩町"},
{"id":"0133","lat":45.102933,"lon":141.777505,"pref":"北海道","city":"天塩郡豊富町"},
{"id":"0134","lat":45.017711,"lon":141.849384,"pref":"北海道","city":"天塩郡幌延町"},
{"id":"0135","lat":45.330616,"lon":142.109192,"pref":"北海道","city":"宗谷郡猿払村"},
{"id":"0136","lat":45.123694,"lon":142.359948,"pref":"北海道","city":"枝幸郡浜頓別町"},
{"id":"0137","lat":44.969819,"lon":142.286735,"pref":"北海道","city":"枝幸郡中頓別町"},
{"id":"0138","lat":44.938714,"lon":142.581411,"pref":"北海道","city":"枝幸郡枝幸町"},
{"id":"0139","lat":45.30302,"lon":141.047689,"pref":"北海道","city":"礼文郡礼文町"},
{"id":"0140","lat":45.187068,"lon":141.139627,"pref":"北海道","city":"利尻郡利尻町"},
{"id":"0141","lat":45.247735,"lon":141.214344,"pref":"北海道","city":"利尻郡利尻富士町"},
{"id":"0142","lat":43.823782,"lon":144.107042,"pref":"北海道","city":"網走郡美幌町"},
{"id":"0143","lat":43.706453,"lon":144.025032,"pref":"北海道","city":"網走郡津別町"},
{"id":"0144","lat":43.91185,"lon":144.172709,"pref":"北海道","city":"網走郡大空町"},
{"id":"0145","lat":43.911513,"lon":144.670605,"pref":"北海道","city":"斜里郡斜里町"},
{"id":"0146","lat":43.835216,"lon":144.594562,"pref":"北海道","city":"斜里郡清里町"},
{"id":"0147","lat":43.856852,"lon":144.462025,"pref":"北海道","city":"斜里郡小清水町"},
{"id":"0148","lat":43.725255,"lon":143.74173,"pref":"北海道","city":"常呂郡訓子府町"},
{"id":"0149","lat":43.676323,"lon":143.586397,"pref":"北海道","city":"常呂郡置戸町"},
{"id":"0150","lat":44.017756,"lon":143.774506,"pref":"北海道","city":"常呂郡佐呂間町"},
{"id":"0151","lat":44.061953,"lon":143.527947,"pref":"北海道","city":"紋別郡遠軽町"},
{"id":"0152","lat":44.151598,"lon":143.572894,"pref":"北海道","city":"紋別郡湧別町"},
{"id":"0153","lat":44.192203,"lon":143.077588,"pref":"北海道","city":"紋別郡滝上町"},
{"id":"0154","lat":44.469878,"lon":143.123891,"pref":"北海道","city":"紋別郡興部町"},
{"id":"0155","lat":44.328853,"lon":142.944392,"pref":"北海道","city":"紋別郡西興部村"},
{"id":"0156","lat":44.582551,"lon":142.96181,"pref":"北海道","city":"紋別郡雄武町"},
{"id":"0157","lat":42.552283,"lon":140.886014,"pref":"北海道","city":"有珠郡壮瞥町"},
{"id":"0158","lat":42.55126,"lon":141.355955,"pref":"北海道","city":"白老郡白老町"},
{"id":"0159","lat":42.48029,"lon":142.074398,"pref":"北海道","city":"沙流郡日高町"},
{"id":"0160","lat":42.585081,"lon":142.128523,"pref":"北海道","city":"沙流郡平取町"},
{"id":"0161","lat":42.362406,"lon":142.318332,"pref":"北海道","city":"新冠郡新冠町"},
{"id":"0162","lat":42.168516,"lon":142.76812,"pref":"北海道","city":"浦河郡浦河町"},
{"id":"0163","lat":42.127853,"lon":142.93355,"pref":"北海道","city":"様似郡様似町"},
{"id":"0164","lat":42.01628,"lon":143.148443,"pref":"北海道","city":"幌泉郡えりも町"},
{"id":"0165","lat":42.341281,"lon":142.368591,"pref":"北海道","city":"日高郡新ひだか町"},
{"id":"0166","lat":42.994143,"lon":143.19796,"pref":"北海道","city":"河東郡音更町"},
{"id":"0167","lat":43.168027,"lon":143.241377,"pref":"北海道","city":"河東郡士幌町"},
{"id":"0168","lat":43.232548,"lon":143.296189,"pref":"北海道","city":"河東郡上士幌町"},
{"id":"0169","lat":43.099102,"lon":142.989043,"pref":"北海道","city":"河東郡鹿追町"},
{"id":"0170","lat":42.91186,"lon":143.050863,"pref":"北海道","city":"河西郡芽室町"},
{"id":"0171","lat":42.697614,"lon":143.132443,"pref":"北海道","city":"河西郡中札内村"},
{"id":"0172","lat":42.650351,"lon":143.187858,"pref":"北海道","city":"河西郡更別村"},
{"id":"0173","lat":42.49754,"lon":143.278814,"pref":"北海道","city":"広尾郡大樹町"},
{"id":"0174","lat":42.285838,"lon":143.311496,"pref":"北海道","city":"広尾郡広尾町"},
{"id":"0175","lat":43.244801,"lon":143.553905,"pref":"北海道","city":"足寄郡足寄町"},
{"id":"0176","lat":43.468981,"lon":143.747243,"pref":"北海道","city":"足寄郡陸別町"},
{"id":"0177","lat":42.808927,"lon":143.658396,"pref":"北海道","city":"十勝郡浦幌町"},
{"id":"0178","lat":42.996045,"lon":144.466032,"pref":"北海道","city":"釧路郡釧路町"},
{"id":"0179","lat":43.051871,"lon":144.84736,"pref":"北海道","city":"厚岸郡厚岸町"},
{"id":"0180","lat":43.077145,"lon":145.129369,"pref":"北海道","city":"厚岸郡浜中町"},
{"id":"0181","lat":43.30344,"lon":144.600779,"pref":"北海道","city":"川上郡標茶町"},
{"id":"0182","lat":43.485348,"lon":144.459221,"pref":"北海道","city":"川上郡弟子屈町"},
{"id":"0183","lat":43.229887,"lon":144.321216,"pref":"北海道","city":"阿寒郡鶴居村"},
{"id":"0184","lat":42.956177,"lon":144.071805,"pref":"北海道","city":"白糠郡白糠町"},
{"id":"0185","lat":43.393787,"lon":145.117271,"pref":"北海道","city":"野付郡別海町"},
{"id":"0186","lat":43.555242,"lon":144.971391,"pref":"北海道","city":"標津郡中標津町"},
{"id":"0187","lat":43.661387,"lon":145.131319,"pref":"北海道","city":"標津郡標津町"},
{"id":"0188","lat":44.021876,"lon":145.18962,"pref":"北海道","city":"目梨郡羅臼町"},
{"id":"0189","lat":40.822072,"lon":140.747365,"pref":"青森県","city":"青森市"},
{"id":"0190","lat":40.603124,"lon":140.463922,"pref":"青森県","city":"弘前市"},
{"id":"0191","lat":40.512284,"lon":141.488399,"pref":"青森県","city":"八戸市"},
{"id":"0192","lat":40.642632,"lon":140.594645,"pref":"青森県","city":"黒石市"},
{"id":"0193","lat":40.808002,"lon":140.44009,"pref":"青森県","city":"五所川原市"},
{"id":"0194","lat":40.612703,"lon":141.205908,"pref":"青森県","city":"十和田市"},
{"id":"0195","lat":40.683134,"lon":141.368976,"pref":"青森県","city":"三沢市"},
{"id":"0196","lat":41.292746,"lon":141.183476,"pref":"青森県","city":"むつ市"},
{"id":"0197","lat":40.808639,"lon":140.380059,"pref":"青森県","city":"つがる市"},
{"id":"0198","lat":40.584011,"lon":140.566478,"pref":"青森県","city":"平川市"},
{"id":"0199","lat":40.926031,"lon":140.95592,"pref":"青森県","city":"東津軽郡平内町"},
{"id":"0200","lat":41.181757,"lon":140.481654,"pref":"青森県","city":"東津軽郡今別町"},
{"id":"0201","lat":40.971714,"lon":140.655966,"pref":"青森県","city":"東津軽郡蓬田村"},
{"id":"0202","lat":41.043159,"lon":140.632296,"pref":"青森県","city":"東津軽郡外ヶ浜町"},
{"id":"0203","lat":40.779913,"lon":140.208695,"pref":"青森県","city":"西津軽郡鰺ヶ沢町"},
{"id":"0204","lat":40.647895,"lon":139.927375,"pref":"青森県","city":"西津軽郡深浦町"},
{"id":"0205","lat":40.576709,"lon":140.296288,"pref":"青森県","city":"中津軽郡西目屋村"},
{"id":"0206","lat":40.656069,"lon":140.502811,"pref":"青森県","city":"南津軽郡藤崎町"},
{"id":"0207","lat":40.518188,"lon":140.567828,"pref":"青森県","city":"南津軽郡大鰐町"},
{"id":"0208","lat":40.631252,"lon":140.550116,"pref":"青森県","city":"南津軽郡田舎館村"},
{"id":"0209","lat":40.695894,"lon":140.457324,"pref":"青森県","city":"北津軽郡板柳町"},
{"id":"0210","lat":40.758605,"lon":140.428382,"pref":"青森県","city":"北津軽郡鶴田町"},
{"id":"0211","lat":40.965179,"lon":140.43984,"pref":"青森県","city":"北津軽郡中泊町"},
{"id":"0212","lat":40.864469,"lon":141.128757,"pref":"青森県","city":"上北郡野辺地町"},
{"id":"0213","lat":40.697416,"lon":141.151021,"pref":"青森県","city":"上北郡七戸町"},
{"id":"0214","lat":40.609521,"lon":141.324949,"pref":"青森県","city":"上北郡六戸町"},
{"id":"0215","lat":41.083147,"lon":141.247793,"pref":"青森県","city":"上北郡横浜町"},
{"id":"0216","lat":40.727876,"lon":141.257882,"pref":"青森県","city":"上北郡東北町"},
{"id":"0217","lat":40.967344,"lon":141.374552,"pref":"青森県","city":"上北郡六ヶ所村"},
{"id":"0218","lat":40.599107,"lon":141.397797,"pref":"青森県","city":"上北郡おいらせ町"},
{"id":"0219","lat":41.526771,"lon":140.907438,"pref":"青森県","city":"下北郡大間町"},
{"id":"0220","lat":41.277787,"lon":141.328936,"pref":"青森県","city":"下北郡東通村"},
{"id":"0221","lat":41.487574,"lon":140.995729,"pref":"青森県","city":"下北郡風間浦村"},
{"id":"0222","lat":41.429706,"lon":140.859129,"pref":"青森県","city":"下北郡佐井村"},
{"id":"0223","lat":40.378407,"lon":141.258745,"pref":"青森県","city":"三戸郡三戸町"},
{"id":"0224","lat":40.531225,"lon":141.30779,"pref":"青森県","city":"三戸郡五戸町"},
{"id":"0225","lat":40.339962,"lon":141.15205,"pref":"青森県","city":"三戸郡田子町"},
{"id":"0226","lat":40.466593,"lon":141.381986,"pref":"青森県","city":"三戸郡南部町"},
{"id":"0227","lat":40.452489,"lon":141.620851,"pref":"青森県","city":"三戸郡階上町"},
{"id":"0228","lat":40.465626,"lon":141.173464,"pref":"青森県","city":"三戸郡新郷村"},
{"id":"0229","lat":39.702053,"lon":141.154484,"pref":"岩手県","city":"盛岡市"},
{"id":"0230","lat":39.64142,"lon":141.95714,"pref":"岩手県","city":"宮古市"},
{"id":"0231","lat":39.081901,"lon":141.70853,"pref":"岩手県","city":"大船渡市"},
{"id":"0232","lat":39.388578,"lon":141.116645,"pref":"岩手県","city":"花巻市"},
{"id":"0233","lat":39.286765,"lon":141.113191,"pref":"岩手県","city":"北上市"},
{"id":"0234","lat":40.190524,"lon":141.775583,"pref":"岩手県","city":"久慈市"},
{"id":"0235","lat":39.327838,"lon":141.533303,"pref":"岩手県","city":"遠野市"},
{"id":"0236","lat":38.934682,"lon":141.1268,"pref":"岩手県","city":"一関市"},
{"id":"0237","lat":39.027661,"lon":141.625495,"pref":"岩手県","city":"陸前高田市"},
{"id":"0238","lat":39.275818,"lon":141.885677,"pref":"岩手県","city":"釜石市"},
{"id":"0239","lat":40.271213,"lon":141.304817,"pref":"岩手県","city":"二戸市"},
{"id":"0240","lat":39.956477,"lon":141.071292,"pref":"岩手県","city":"八幡平市"},
{"id":"0241","lat":39.144529,"lon":141.139141,"pref":"岩手県","city":"奥州市"},
{"id":"0242","lat":39.734684,"lon":141.077095,"pref":"岩手県","city":"滝沢市"},
{"id":"0243","lat":39.696288,"lon":140.975776,"pref":"岩手県","city":"岩手郡雫石町"},
{"id":"0244","lat":40.039896,"lon":141.436465,"pref":"岩手県","city":"岩手郡葛巻町"},
{"id":"0245","lat":39.97259,"lon":141.212516,"pref":"岩手県","city":"岩手郡岩手町"},
{"id":"0246","lat":39.554568,"lon":141.155659,"pref":"岩手県","city":"紫波郡紫波町"},
{"id":"0247","lat":39.605981,"lon":141.142889,"pref":"岩手県","city":"紫波郡矢巾町"},
{"id":"0248","lat":39.434621,"lon":140.750124,"pref":"岩手県","city":"和賀郡西和賀町"},
{"id":"0249","lat":39.195742,"lon":141.116324,"pref":"岩手県","city":"胆沢郡金ケ崎町"},
{"id":"0250","lat":38.986662,"lon":141.113822,"pref":"岩手県","city":"西磐井郡平泉町"},
{"id":"0251","lat":39.14223,"lon":141.575047,"pref":"岩手県","city":"気仙郡住田町"},
{"id":"0252","lat":39.358231,"lon":141.899422,"pref":"岩手県","city":"上閉伊郡大槌町"},
{"id":"0253","lat":39.467662,"lon":141.94895,"pref":"岩手県","city":"下閉伊郡山田町"},
{"id":"0254","lat":39.843042,"lon":141.796303,"pref":"岩手県","city":"下閉伊郡岩泉町"},
{"id":"0255","lat":39.93045,"lon":141.888868,"pref":"岩手県","city":"下閉伊郡田野畑村"},
{"id":"0256","lat":40.005167,"lon":141.885908,"pref":"岩手県","city":"下閉伊郡普代村"},
{"id":"0257","lat":40.326746,"lon":141.460633,"pref":"岩手県","city":"九戸郡軽米町"},
{"id":"0258","lat":40.110266,"lon":141.817668,"pref":"岩手県","city":"九戸郡野田村"},
{"id":"0259","lat":40.211392,"lon":141.418985,"pref":"岩手県","city":"九戸郡九戸村"},
{"id":"0260","lat":40.284263,"lon":141.624833,"pref":"岩手県","city":"九戸郡洋野町"},
{"id":"0261","lat":40.213011,"lon":141.295475,"pref":"岩手県","city":"二戸郡一戸町"},
{"id":"0262","lat":38.269076,"lon":140.870403,"pref":"宮城県","city":"仙台市青葉区"},
{"id":"0263","lat":38.266139,"lon":140.909832,"pref":"宮城県","city":"仙台市宮城野区"},
{"id":"0264","lat":38.244224,"lon":140.900756,"pref":"宮城県","city":"仙台市若林区"},
{"id":"0265","lat":38.224348,"lon":140.877134,"pref":"宮城県","city":"仙台市太白区"},
{"id":"0266","lat":38.326375,"lon":140.881629,"pref":"宮城県","city":"仙台市泉区"},
{"id":"0267","lat":38.43448,"lon":141.302917,"pref":"宮城県","city":"石巻市"},
{"id":"0268","lat":38.314362,"lon":141.022027,"pref":"宮城県","city":"塩竈市"},
{"id":"0269","lat":38.908078,"lon":141.569992,"pref":"宮城県","city":"気仙沼市"},
{"id":"0270","lat":38.002478,"lon":140.61986,"pref":"宮城県","city":"白石市"},
{"id":"0271","lat":38.17152,"lon":140.891913,"pref":"宮城県","city":"名取市"},
{"id":"0272","lat":37.977063,"lon":140.78199,"pref":"宮城県","city":"角田市"},
{"id":"0273","lat":38.293839,"lon":141.004225,"pref":"宮城県","city":"多賀城市"},
{"id":"0274","lat":38.104292,"lon":140.870138,"pref":"宮城県","city":"岩沼市"},
{"id":"0275","lat":38.691923,"lon":141.187579,"pref":"宮城県","city":"登米市"},
{"id":"0276","lat":38.730128,"lon":141.021333,"pref":"宮城県","city":"栗原市"},
{"id":"0277","lat":38.426168,"lon":141.210242,"pref":"宮城県","city":"東松島市"},
{"id":"0278","lat":38.577071,"lon":140.95535,"pref":"宮城県","city":"大崎市"},
{"id":"0279","lat":38.400245,"lon":140.89531,"pref":"宮城県","city":"富谷市"},
{"id":"0280","lat":38.098164,"lon":140.658416,"pref":"宮城県","city":"刈田郡蔵王町"},
{"id":"0281","lat":37.993063,"lon":140.441612,"pref":"宮城県","city":"刈田郡七ヶ宿町"},
{"id":"0282","lat":38.049493,"lon":140.730721,"pref":"宮城県","city":"柴田郡大河原町"},
{"id":"0283","lat":38.118539,"lon":140.722404,"pref":"宮城県","city":"柴田郡村田町"},
{"id":"0284","lat":38.056563,"lon":140.76579,"pref":"宮城県","city":"柴田郡柴田町"},
{"id":"0285","lat":38.177737,"lon":140.643202,"pref":"宮城県","city":"柴田郡川崎町"},
{"id":"0286","lat":37.911429,"lon":140.765528,"pref":"宮城県","city":"伊具郡丸森町"},
{"id":"0287","lat":38.03746,"lon":140.852581,"pref":"宮城県","city":"亘理郡亘理町"},
{"id":"0288","lat":37.961668,"lon":140.877818,"pref":"宮城県","city":"亘理郡山元町"},
{"id":"0289","lat":38.380128,"lon":141.067244,"pref":"宮城県","city":"宮城郡松島町"},
{"id":"0290","lat":38.304613,"lon":141.059186,"pref":"宮城県","city":"宮城郡七ヶ浜町"},
{"id":"0291","lat":38.33019,"lon":140.975722,"pref":"宮城県","city":"宮城郡利府町"},
{"id":"0292","lat":38.437329,"lon":140.886306,"pref":"宮城県","city":"黒川郡大和町"},
{"id":"0293","lat":38.42426,"lon":141.004445,"pref":"宮城県","city":"黒川郡大郷町"},
{"id":"0294","lat":38.467226,"lon":140.880087,"pref":"宮城県","city":"黒川郡大衡村"},
{"id":"0295","lat":38.54892,"lon":140.849878,"pref":"宮城県","city":"加美郡色麻町"},
{"id":"0296","lat":38.571767,"lon":140.854751,"pref":"宮城県","city":"加美郡加美町"},
{"id":"0297","lat":38.539646,"lon":141.128075,"pref":"宮城県","city":"遠田郡涌谷町"},
{"id":"0298","lat":38.544391,"lon":141.056695,"pref":"宮城県","city":"遠田郡美里町"},
{"id":"0299","lat":38.449733,"lon":141.443088,"pref":"宮城県","city":"牡鹿郡女川町"},
{"id":"0300","lat":38.679771,"lon":141.460514,"pref":"宮城県","city":"本吉郡南三陸町"},
{"id":"0301","lat":39.720008,"lon":140.102564,"pref":"秋田県","city":"秋田市"},
{"id":"0302","lat":40.212151,"lon":140.026624,"pref":"秋田県","city":"能代市"},
{"id":"0303","lat":39.313782,"lon":140.566649,"pref":"秋田県","city":"横手市"},
{"id":"0304","lat":40.271405,"lon":140.564285,"pref":"秋田県","city":"大館市"},
{"id":"0305","lat":39.886818,"lon":139.847558,"pref":"秋田県","city":"男鹿市"},
{"id":"0306","lat":39.164304,"lon":140.495663,"pref":"秋田県","city":"湯沢市"},
{"id":"0307","lat":40.215778,"lon":140.788436,"pref":"秋田県","city":"鹿角市"},
{"id":"0308","lat":39.385877,"lon":140.048791,"pref":"秋田県","city":"由利本荘市"},
{"id":"0309","lat":39.857288,"lon":140.013054,"pref":"秋田県","city":"潟上市"},
{"id":"0310","lat":39.453088,"lon":140.475448,"pref":"秋田県","city":"大仙市"},
{"id":"0311","lat":40.226054,"lon":140.370742,"pref":"秋田県","city":"北秋田市"},
{"id":"0312","lat":39.203012,"lon":139.907713,"pref":"秋田県","city":"にかほ市"},
{"id":"0313","lat":39.700069,"lon":140.730588,"pref":"秋田県","city":"仙北市"},
{"id":"0314","lat":40.333092,"lon":140.736081,"pref":"秋田県","city":"鹿角郡小坂町"},
{"id":"0315","lat":40.063266,"lon":140.295767,"pref":"秋田県","city":"北秋田郡上小阿仁村"},
{"id":"0316","lat":40.27836,"lon":140.261704,"pref":"秋田県","city":"山本郡藤里町"},
{"id":"0317","lat":40.101626,"lon":140.004748,"pref":"秋田県","city":"山本郡三種町"},
{"id":"0318","lat":40.318724,"lon":140.038648,"pref":"秋田県","city":"山本郡八峰町"},
{"id":"0319","lat":39.943892,"lon":140.111306,"pref":"秋田県","city":"南秋田郡五城目町"},
{"id":"0320","lat":39.949382,"lon":140.073318,"pref":"秋田県","city":"南秋田郡八郎潟町"},
{"id":"0321","lat":39.914169,"lon":140.081294,"pref":"秋田県","city":"南秋田郡井川町"},
{"id":"0322","lat":40.017792,"lon":139.960067,"pref":"秋田県","city":"南秋田郡大潟村"},
{"id":"0323","lat":39.461905,"lon":140.581299,"pref":"秋田県","city":"仙北郡美郷町"},
{"id":"0324","lat":39.199323,"lon":140.412923,"pref":"秋田県","city":"雄勝郡羽後町"},
{"id":"0325","lat":39.179183,"lon":140.64889,"pref":"秋田県","city":"雄勝郡東成瀬村"},
{"id":"0326","lat":38.255439,"lon":140.339602,"pref":"山形県","city":"山形市"},
{"id":"0327","lat":37.92224,"lon":140.116781,"pref":"山形県","city":"米沢市"},
{"id":"0328","lat":38.727197,"lon":139.826731,"pref":"山形県","city":"鶴岡市"},
{"id":"0329","lat":38.914433,"lon":139.836515,"pref":"山形県","city":"酒田市"},
{"id":"0330","lat":38.765015,"lon":140.301608,"pref":"山形県","city":"新庄市"},
{"id":"0331","lat":38.380964,"lon":140.275967,"pref":"山形県","city":"寒河江市"},
{"id":"0332","lat":38.149562,"lon":140.267827,"pref":"山形県","city":"上山市"},
{"id":"0333","lat":38.483344,"lon":140.380372,"pref":"山形県","city":"村山市"},
{"id":"0334","lat":38.107494,"lon":140.040524,"pref":"山形県","city":"長井市"},
{"id":"0335","lat":38.362265,"lon":140.377886,"pref":"山形県","city":"天童市"},
{"id":"0336","lat":38.431354,"lon":140.39109,"pref":"山形県","city":"東根市"},
{"id":"0337","lat":38.600622,"lon":140.405691,"pref":"山形県","city":"尾花沢市"},
{"id":"0338","lat":38.055141,"lon":140.148375,"pref":"山形県","city":"南陽市"},
{"id":"0339","lat":38.289114,"lon":140.262178,"pref":"山形県","city":"東村山郡山辺町"},
{"id":"0340","lat":38.333114,"lon":140.283034,"pref":"山形県","city":"東村山郡中山町"},
{"id":"0341","lat":38.426271,"lon":140.314284,"pref":"山形県","city":"西村山郡河北町"},
{"id":"0342","lat":38.426499,"lon":140.147347,"pref":"山形県","city":"西村山郡西川町"},
{"id":"0343","lat":38.299248,"lon":140.145926,"pref":"山形県","city":"西村山郡朝日町"},
{"id":"0344","lat":38.380648,"lon":140.207013,"pref":"山形県","city":"西村山郡大江町"},
{"id":"0345","lat":38.593863,"lon":140.37268,"pref":"山形県","city":"北村山郡大石田町"},
{"id":"0346","lat":38.883357,"lon":140.339456,"pref":"山形県","city":"最上郡金山町"},
{"id":"0347","lat":38.758387,"lon":140.519354,"pref":"山形県","city":"最上郡最上町"},
{"id":"0348","lat":38.691444,"lon":140.319776,"pref":"山形県","city":"最上郡舟形町"},
{"id":"0349","lat":38.857859,"lon":140.252301,"pref":"山形県","city":"最上郡真室川町"},
{"id":"0350","lat":38.704182,"lon":140.230374,"pref":"山形県","city":"最上郡大蔵村"},
{"id":"0351","lat":38.796457,"lon":140.222052,"pref":"山形県","city":"最上郡鮭川村"},
{"id":"0352","lat":38.737473,"lon":140.143804,"pref":"山形県","city":"最上郡戸沢村"},
{"id":"0353","lat":38.002736,"lon":140.18916,"pref":"山形県","city":"東置賜郡高畠町"},
{"id":"0354","lat":38.004479,"lon":140.04579,"pref":"山形県","city":"東置賜郡川西町"},
{"id":"0355","lat":38.061627,"lon":139.743364,"pref":"山形県","city":"西置賜郡小国町"},
{"id":"0356","lat":38.183095,"lon":140.098438,"pref":"山形県","city":"西置賜郡白鷹町"},
{"id":"0357","lat":38.045827,"lon":139.987529,"pref":"山形県","city":"西置賜郡飯豊町"},
{"id":"0358","lat":38.794487,"lon":139.849696,"pref":"山形県","city":"東田川郡三川町"},
{"id":"0359","lat":38.849915,"lon":139.904745,"pref":"山形県","city":"東田川郡庄内町"},
{"id":"0360","lat":39.014616,"lon":139.907352,"pref":"山形県","city":"飽海郡遊佐町"},
{"id":"0361","lat":37.760834,"lon":140.474728,"pref":"福島県","city":"福島市"},
{"id":"0362","lat":37.494761,"lon":139.92981,"pref":"福島県","city":"会津若松市"},
{"id":"0363","lat":37.400529,"lon":140.359742,"pref":"福島県","city":"郡山市"},
{"id":"0364","lat":37.05042,"lon":140.887682,"pref":"福島県","city":"いわき市"},
{"id":"0365","lat":37.126362,"lon":140.210943,"pref":"福島県","city":"白河市"},
{"id":"0366","lat":37.292893,"lon":140.356975,"pref":"福島県","city":"須賀川市"},
{"id":"0367","lat":37.651355,"lon":139.874609,"pref":"福島県","city":"喜多方市"},
{"id":"0368","lat":37.796624,"lon":140.91947,"pref":"福島県","city":"相馬市"},
{"id":"0369","lat":37.584858,"lon":140.431129,"pref":"福島県","city":"二本松市"},
{"id":"0370","lat":37.44055,"lon":140.576422,"pref":"福島県","city":"田村市"},
{"id":"0371","lat":37.642161,"lon":140.957276,"pref":"福島県","city":"南相馬市"},
{"id":"0372","lat":37.819138,"lon":140.562908,"pref":"福島県","city":"伊達市"},
{"id":"0373","lat":37.513131,"lon":140.39389,"pref":"福島県","city":"本宮市"},
{"id":"0374","lat":37.849537,"lon":140.516352,"pref":"福島県","city":"伊達郡桑折町"},
{"id":"0375","lat":37.837,"lon":140.549185,"pref":"福島県","city":"伊達郡国見町"},
{"id":"0376","lat":37.663922,"lon":140.597333,"pref":"福島県","city":"伊達郡川俣町"},
{"id":"0377","lat":37.534392,"lon":140.371189,"pref":"福島県","city":"安達郡大玉村"},
{"id":"0378","lat":37.25283,"lon":140.343408,"pref":"福島県","city":"岩瀬郡鏡石町"},
{"id":"0379","lat":37.255606,"lon":140.247074,"pref":"福島県","city":"岩瀬郡天栄村"},
{"id":"0380","lat":37.25558,"lon":139.872128,"pref":"福島県","city":"南会津郡下郷町"},
{"id":"0381","lat":37.024146,"lon":139.388945,"pref":"福島県","city":"南会津郡檜枝岐村"},
{"id":"0382","lat":37.348801,"lon":139.316091,"pref":"福島県","city":"南会津郡只見町"},
{"id":"0383","lat":37.200395,"lon":139.773199,"pref":"福島県","city":"南会津郡南会津町"},
{"id":"0384","lat":37.655715,"lon":139.937374,"pref":"福島県","city":"耶麻郡北塩原村"},
{"id":"0385","lat":37.588798,"lon":139.647495,"pref":"福島県","city":"耶麻郡西会津町"},
{"id":"0386","lat":37.562115,"lon":139.98878,"pref":"福島県","city":"耶麻郡磐梯町"},
{"id":"0387","lat":37.557768,"lon":140.104761,"pref":"福島県","city":"耶麻郡猪苗代町"},
{"id":"0388","lat":37.561481,"lon":139.821643,"pref":"福島県","city":"河沼郡会津坂下町"},
{"id":"0389","lat":37.565299,"lon":139.886778,"pref":"福島県","city":"河沼郡湯川村"},
{"id":"0390","lat":37.52616,"lon":139.719542,"pref":"福島県","city":"河沼郡柳津町"},
{"id":"0391","lat":37.470369,"lon":139.644447,"pref":"福島県","city":"大沼郡三島町"},
{"id":"0392","lat":37.453851,"lon":139.524298,"pref":"福島県","city":"大沼郡金山町"},
{"id":"0393","lat":37.335416,"lon":139.61066,"pref":"福島県","city":"大沼郡昭和村"},
{"id":"0394","lat":37.459854,"lon":139.841178,"pref":"福島県","city":"大沼郡会津美里町"},
{"id":"0395","lat":37.141696,"lon":140.155364,"pref":"福島県","city":"西白河郡西郷村"},
{"id":"0396","lat":37.157052,"lon":140.295252,"pref":"福島県","city":"西白河郡泉崎村"},
{"id":"0397","lat":37.148757,"lon":140.350204,"pref":"福島県","city":"西白河郡中島村"},
{"id":"0398","lat":37.201278,"lon":140.338608,"pref":"福島県","city":"西白河郡矢吹町"},
{"id":"0399","lat":37.029905,"lon":140.379648,"pref":"福島県","city":"東白川郡棚倉町"},
{"id":"0400","lat":36.871403,"lon":140.424783,"pref":"福島県","city":"東白川郡矢祭町"},
{"id":"0401","lat":36.957437,"lon":140.409573,"pref":"福島県","city":"東白川郡塙町"},
{"id":"0402","lat":37.042327,"lon":140.509669,"pref":"福島県","city":"東白川郡鮫川村"},
{"id":"0403","lat":37.14433,"lon":140.452351,"pref":"福島県","city":"石川郡石川町"},
{"id":"0404","lat":37.210706,"lon":140.409038,"pref":"福島県","city":"石川郡玉川村"},
{"id":"0405","lat":37.221786,"lon":140.575876,"pref":"福島県","city":"石川郡平田村"},
{"id":"0406","lat":37.080995,"lon":140.412809,"pref":"福島県","city":"石川郡浅川町"},
{"id":"0407","lat":37.089093,"lon":140.555649,"pref":"福島県","city":"石川郡古殿町"},
{"id":"0408","lat":37.441048,"lon":140.492569,"pref":"福島県","city":"田村郡三春町"},
{"id":"0409","lat":37.286823,"lon":140.626277,"pref":"福島県","city":"田村郡小野町"},
{"id":"0410","lat":37.214559,"lon":140.994458,"pref":"福島県","city":"双葉郡広野町"},
{"id":"0411","lat":37.2825,"lon":140.993611,"pref":"福島県","city":"双葉郡楢葉町"},
{"id":"0412","lat":37.333056,"lon":141.016944,"pref":"福島県","city":"双葉郡富岡町"},
{"id":"0413","lat":37.337691,"lon":140.809345,"pref":"福島県","city":"双葉郡川内村"},
{"id":"0414","lat":37.404444,"lon":140.983611,"pref":"福島県","city":"双葉郡大熊町"},
{"id":"0415","lat":37.449167,"lon":141.0125,"pref":"福島県","city":"双葉郡双葉町"},
{"id":"0416","lat":37.483333,"lon":141,"pref":"福島県","city":"双葉郡浪江町"},
{"id":"0417","lat":37.503611,"lon":140.764444,"pref":"福島県","city":"双葉郡葛尾村"},
{"id":"0418","lat":37.876357,"lon":140.919599,"pref":"福島県","city":"相馬郡新地町"},
{"id":"0419","lat":37.67919,"lon":140.735247,"pref":"福島県","city":"相馬郡飯舘村"},
{"id":"0420","lat":36.366503,"lon":140.470996,"pref":"茨城県","city":"水戸市"},
{"id":"0421","lat":36.599154,"lon":140.651469,"pref":"茨城県","city":"日立市"},
{"id":"0422","lat":36.078297,"lon":140.204333,"pref":"茨城県","city":"土浦市"},
{"id":"0423","lat":36.184645,"lon":139.702525,"pref":"茨城県","city":"古河市"},
{"id":"0424","lat":36.190048,"lon":140.287556,"pref":"茨城県","city":"石岡市"},
{"id":"0425","lat":36.305417,"lon":139.876641,"pref":"茨城県","city":"結城市"},
{"id":"0426","lat":35.911594,"lon":140.182264,"pref":"茨城県","city":"龍ケ崎市"},
{"id":"0427","lat":36.184514,"lon":139.967374,"pref":"茨城県","city":"下妻市"},
{"id":"0428","lat":36.023494,"lon":139.993617,"pref":"茨城県","city":"常総市"},
{"id":"0429","lat":36.538275,"lon":140.53095,"pref":"茨城県","city":"常陸太田市"},
{"id":"0430","lat":36.719147,"lon":140.716688,"pref":"茨城県","city":"高萩市"},
{"id":"0431","lat":36.801911,"lon":140.750979,"pref":"茨城県","city":"北茨城市"},
{"id":"0432","lat":36.3453,"lon":140.304354,"pref":"茨城県","city":"笠間市"},
{"id":"0433","lat":35.911442,"lon":140.050468,"pref":"茨城県","city":"取手市"},
{"id":"0434","lat":35.979375,"lon":140.149524,"pref":"茨城県","city":"牛久市"},
{"id":"0435","lat":36.083486,"lon":140.076642,"pref":"茨城県","city":"つくば市"},
{"id":"0436","lat":36.396615,"lon":140.534676,"pref":"茨城県","city":"ひたちなか市"},
{"id":"0437","lat":35.965756,"lon":140.644813,"pref":"茨城県","city":"鹿嶋市"},
{"id":"0438","lat":35.947123,"lon":140.555372,"pref":"茨城県","city":"潮来市"},
{"id":"0439","lat":35.951421,"lon":139.975391,"pref":"茨城県","city":"守谷市"},
{"id":"0440","lat":36.542577,"lon":140.41089,"pref":"茨城県","city":"常陸大宮市"},
{"id":"0441","lat":36.457469,"lon":140.486854,"pref":"茨城県","city":"那珂市"},
{"id":"0442","lat":36.307053,"lon":139.983123,"pref":"茨城県","city":"筑西市"},
{"id":"0443","lat":36.048738,"lon":139.88832,"pref":"茨城県","city":"坂東市"},
{"id":"0444","lat":35.956492,"lon":140.323908,"pref":"茨城県","city":"稲敷市"},
{"id":"0445","lat":36.094529,"lon":140.330691,"pref":"茨城県","city":"かすみがうら市"},
{"id":"0446","lat":36.32725,"lon":140.090433,"pref":"茨城県","city":"桜川市"},
{"id":"0447","lat":35.889966,"lon":140.664513,"pref":"茨城県","city":"神栖市"},
{"id":"0448","lat":35.990416,"lon":140.489025,"pref":"茨城県","city":"行方市"},
{"id":"0449","lat":36.15864,"lon":140.516461,"pref":"茨城県","city":"鉾田市"},
{"id":"0450","lat":35.963024,"lon":140.03702,"pref":"茨城県","city":"つくばみらい市"},
{"id":"0451","lat":36.239345,"lon":140.352576,"pref":"茨城県","city":"小美玉市"},
{"id":"0452","lat":36.286921,"lon":140.424514,"pref":"茨城県","city":"東茨城郡茨城町"},
{"id":"0453","lat":36.313443,"lon":140.574974,"pref":"茨城県","city":"東茨城郡大洗町"},
{"id":"0454","lat":36.479363,"lon":140.376166,"pref":"茨城県","city":"東茨城郡城里町"},
{"id":"0455","lat":36.47288,"lon":140.566299,"pref":"茨城県","city":"那珂郡東海村"},
{"id":"0456","lat":36.768096,"lon":140.355266,"pref":"茨城県","city":"久慈郡大子町"},
{"id":"0457","lat":36.004562,"lon":140.301914,"pref":"茨城県","city":"稲敷郡美浦村"},
{"id":"0458","lat":36.030795,"lon":140.214786,"pref":"茨城県","city":"稲敷郡阿見町"},
{"id":"0459","lat":35.884794,"lon":140.244465,"pref":"茨城県","city":"稲敷郡河内町"},
{"id":"0460","lat":36.181635,"lon":139.891129,"pref":"茨城県","city":"結城郡八千代町"},
{"id":"0461","lat":36.114113,"lon":139.745832,"pref":"茨城県","city":"猿島郡五霞町"},
{"id":"0462","lat":36.108426,"lon":139.794961,"pref":"茨城県","city":"猿島郡境町"},
{"id":"0463","lat":35.857747,"lon":140.139148,"pref":"茨城県","city":"北相馬郡利根町"},
{"id":"0464","lat":36.555112,"lon":139.882807,"pref":"栃木県","city":"宇都宮市"},
{"id":"0465","lat":36.340151,"lon":139.449698,"pref":"栃木県","city":"足利市"},
{"id":"0466","lat":36.38238,"lon":139.734081,"pref":"栃木県","city":"栃木市"},
{"id":"0467","lat":36.308578,"lon":139.593118,"pref":"栃木県","city":"佐野市"},
{"id":"0468","lat":36.567111,"lon":139.745013,"pref":"栃木県","city":"鹿沼市"},
{"id":"0469","lat":36.719903,"lon":139.698216,"pref":"栃木県","city":"日光市"},
{"id":"0470","lat":36.314671,"lon":139.800131,"pref":"栃木県","city":"小山市"},
{"id":"0471","lat":36.440419,"lon":140.013442,"pref":"栃木県","city":"真岡市"},
{"id":"0472","lat":36.871484,"lon":140.017419,"pref":"栃木県","city":"大田原市"},
{"id":"0473","lat":36.806686,"lon":139.924054,"pref":"栃木県","city":"矢板市"},
{"id":"0474","lat":36.961698,"lon":140.046066,"pref":"栃木県","city":"那須塩原市"},
{"id":"0475","lat":36.685301,"lon":139.966452,"pref":"栃木県","city":"さくら市"},
{"id":"0476","lat":36.656893,"lon":140.151426,"pref":"栃木県","city":"那須烏山市"},
{"id":"0477","lat":36.387195,"lon":139.841967,"pref":"栃木県","city":"下野市"},
{"id":"0478","lat":36.439296,"lon":139.909884,"pref":"栃木県","city":"河内郡上三川町"},
{"id":"0479","lat":36.467353,"lon":140.093378,"pref":"栃木県","city":"芳賀郡益子町"},
{"id":"0480","lat":36.53212,"lon":140.187565,"pref":"栃木県","city":"芳賀郡茂木町"},
{"id":"0481","lat":36.543308,"lon":140.102046,"pref":"栃木県","city":"芳賀郡市貝町"},
{"id":"0482","lat":36.548323,"lon":140.058196,"pref":"栃木県","city":"芳賀郡芳賀町"},
{"id":"0483","lat":36.427058,"lon":139.803932,"pref":"栃木県","city":"下都賀郡壬生町"},
{"id":"0484","lat":36.233251,"lon":139.74075,"pref":"栃木県","city":"下都賀郡野木町"},
{"id":"0485","lat":36.777613,"lon":139.85057,"pref":"栃木県","city":"塩谷郡塩谷町"},
{"id":"0486","lat":36.630973,"lon":139.986684,"pref":"栃木県","city":"塩谷郡高根沢町"},
{"id":"0487","lat":37.019731,"lon":140.121017,"pref":"栃木県","city":"那須郡那須町"},
{"id":"0488","lat":36.761661,"lon":140.130072,"pref":"栃木県","city":"那須郡那珂川町"},
{"id":"0489","lat":36.389482,"lon":139.063428,"pref":"群馬県","city":"前橋市"},
{"id":"0490","lat":36.321909,"lon":139.003294,"pref":"群馬県","city":"高崎市"},
{"id":"0491","lat":36.405491,"lon":139.330688,"pref":"群馬県","city":"桐生市"},
{"id":"0492","lat":36.311364,"lon":139.19677,"pref":"群馬県","city":"伊勢崎市"},
{"id":"0493","lat":36.291122,"lon":139.375471,"pref":"群馬県","city":"太田市"},
{"id":"0494","lat":36.646077,"lon":139.044161,"pref":"群馬県","city":"沼田市"},
{"id":"0495","lat":36.244849,"lon":139.541968,"pref":"群馬県","city":"館林市"},
{"id":"0496","lat":36.489471,"lon":139.000448,"pref":"群馬県","city":"渋川市"},
{"id":"0497","lat":36.258477,"lon":139.074439,"pref":"群馬県","city":"藤岡市"},
{"id":"0498","lat":36.259896,"lon":138.889932,"pref":"群馬県","city":"富岡市"},
{"id":"0499","lat":36.326368,"lon":138.887324,"pref":"群馬県","city":"安中市"},
{"id":"0500","lat":36.394838,"lon":139.281135,"pref":"群馬県","city":"みどり市"},
{"id":"0501","lat":36.438642,"lon":138.967118,"pref":"群馬県","city":"北群馬郡榛東村"},
{"id":"0502","lat":36.447501,"lon":139.009766,"pref":"群馬県","city":"北群馬郡吉岡町"},
{"id":"0503","lat":36.083143,"lon":138.777376,"pref":"群馬県","city":"多野郡上野村"},
{"id":"0504","lat":36.116056,"lon":138.916955,"pref":"群馬県","city":"多野郡神流町"},
{"id":"0505","lat":36.21239,"lon":138.789094,"pref":"群馬県","city":"甘楽郡下仁田町"},
{"id":"0506","lat":36.158548,"lon":138.711406,"pref":"群馬県","city":"甘楽郡南牧村"},
{"id":"0507","lat":36.242954,"lon":138.921682,"pref":"群馬県","city":"甘楽郡甘楽町"},
{"id":"0508","lat":36.589893,"lon":138.840986,"pref":"群馬県","city":"吾妻郡中之条町"},
{"id":"0509","lat":36.552446,"lon":138.637477,"pref":"群馬県","city":"吾妻郡長野原町"},
{"id":"0510","lat":36.516874,"lon":138.530182,"pref":"群馬県","city":"吾妻郡嬬恋村"},
{"id":"0511","lat":36.620778,"lon":138.596053,"pref":"群馬県","city":"吾妻郡草津町"},
{"id":"0512","lat":36.620887,"lon":138.943449,"pref":"群馬県","city":"吾妻郡高山村"},
{"id":"0513","lat":36.571347,"lon":138.825472,"pref":"群馬県","city":"吾妻郡東吾妻町"},
{"id":"0514","lat":36.772469,"lon":139.225243,"pref":"群馬県","city":"利根郡片品村"},
{"id":"0515","lat":36.694669,"lon":139.106534,"pref":"群馬県","city":"利根郡川場村"},
{"id":"0516","lat":36.639753,"lon":139.065865,"pref":"群馬県","city":"利根郡昭和村"},
{"id":"0517","lat":36.6787,"lon":138.999064,"pref":"群馬県","city":"利根郡みなかみ町"},
{"id":"0518","lat":36.304433,"lon":139.114913,"pref":"群馬県","city":"佐波郡玉村町"},
{"id":"0519","lat":36.222952,"lon":139.610271,"pref":"群馬県","city":"邑楽郡板倉町"},
{"id":"0520","lat":36.2113,"lon":139.534244,"pref":"群馬県","city":"邑楽郡明和町"},
{"id":"0521","lat":36.217754,"lon":139.442435,"pref":"群馬県","city":"邑楽郡千代田町"},
{"id":"0522","lat":36.247902,"lon":139.40487,"pref":"群馬県","city":"邑楽郡大泉町"},
{"id":"0523","lat":36.252394,"lon":139.462286,"pref":"群馬県","city":"邑楽郡邑楽町"},
{"id":"0524","lat":35.925302,"lon":139.579472,"pref":"埼玉県","city":"さいたま市西区"},
{"id":"0525","lat":35.931522,"lon":139.620346,"pref":"埼玉県","city":"さいたま市北区"},
{"id":"0526","lat":35.906487,"lon":139.628754,"pref":"埼玉県","city":"さいたま市大宮区"},
{"id":"0527","lat":35.935206,"lon":139.654526,"pref":"埼玉県","city":"さいたま市見沼区"},
{"id":"0528","lat":35.884096,"lon":139.626102,"pref":"埼玉県","city":"さいたま市中央区"},
{"id":"0529","lat":35.85614,"lon":139.610352,"pref":"埼玉県","city":"さいたま市桜区"},
{"id":"0530","lat":35.861651,"lon":139.645435,"pref":"埼玉県","city":"さいたま市浦和区"},
{"id":"0531","lat":35.845253,"lon":139.645352,"pref":"埼玉県","city":"さいたま市南区"},
{"id":"0532","lat":35.871087,"lon":139.68397,"pref":"埼玉県","city":"さいたま市緑区"},
{"id":"0533","lat":35.949861,"lon":139.694191,"pref":"埼玉県","city":"さいたま市岩槻区"},
{"id":"0534","lat":35.925101,"lon":139.485793,"pref":"埼玉県","city":"川越市"},
{"id":"0535","lat":36.14731,"lon":139.388645,"pref":"埼玉県","city":"熊谷市"},
{"id":"0536","lat":35.807738,"lon":139.724171,"pref":"埼玉県","city":"川口市"},
{"id":"0537","lat":36.138949,"lon":139.455643,"pref":"埼玉県","city":"行田市"},
{"id":"0538","lat":35.992055,"lon":139.084817,"pref":"埼玉県","city":"秩父市"},
{"id":"0539","lat":35.799672,"lon":139.46861,"pref":"埼玉県","city":"所沢市"},
{"id":"0540","lat":35.855731,"lon":139.327734,"pref":"埼玉県","city":"飯能市"},
{"id":"0541","lat":36.131438,"lon":139.601719,"pref":"埼玉県","city":"加須市"},
{"id":"0542","lat":36.243568,"lon":139.190393,"pref":"埼玉県","city":"本庄市"},
{"id":"0543","lat":36.042126,"lon":139.399959,"pref":"埼玉県","city":"東松山市"},
{"id":"0544","lat":35.975198,"lon":139.752301,"pref":"埼玉県","city":"春日部市"},
{"id":"0545","lat":35.852942,"lon":139.412213,"pref":"埼玉県","city":"狭山市"},
{"id":"0546","lat":36.172626,"lon":139.548465,"pref":"埼玉県","city":"羽生市"},
{"id":"0547","lat":36.065758,"lon":139.522169,"pref":"埼玉県","city":"鴻巣市"},
{"id":"0548","lat":36.197444,"lon":139.281464,"pref":"埼玉県","city":"深谷市"},
{"id":"0549","lat":35.977381,"lon":139.593206,"pref":"埼玉県","city":"上尾市"},
{"id":"0550","lat":35.825355,"lon":139.805402,"pref":"埼玉県","city":"草加市"},
{"id":"0551","lat":35.891084,"lon":139.790938,"pref":"埼玉県","city":"越谷市"},
{"id":"0552","lat":35.825634,"lon":139.679708,"pref":"埼玉県","city":"蕨市"},
{"id":"0553","lat":35.817616,"lon":139.677892,"pref":"埼玉県","city":"戸田市"},
{"id":"0554","lat":35.835766,"lon":139.391058,"pref":"埼玉県","city":"入間市"},
{"id":"0555","lat":35.797252,"lon":139.593916,"pref":"埼玉県","city":"朝霞市"},
{"id":"0556","lat":35.83675,"lon":139.580319,"pref":"埼玉県","city":"志木市"},
{"id":"0557","lat":35.781208,"lon":139.605793,"pref":"埼玉県","city":"和光市"},
{"id":"0558","lat":35.793511,"lon":139.565369,"pref":"埼玉県","city":"新座市"},
{"id":"0559","lat":36.005779,"lon":139.542531,"pref":"埼玉県","city":"桶川市"},
{"id":"0560","lat":36.061995,"lon":139.666838,"pref":"埼玉県","city":"久喜市"},
{"id":"0561","lat":36.026768,"lon":139.530211,"pref":"埼玉県","city":"北本市"},
{"id":"0562","lat":35.822536,"lon":139.839175,"pref":"埼玉県","city":"八潮市"},
{"id":"0563","lat":35.856759,"lon":139.549074,"pref":"埼玉県","city":"富士見市"},
{"id":"0564","lat":35.830149,"lon":139.872275,"pref":"埼玉県","city":"三郷市"},
{"id":"0565","lat":35.994307,"lon":139.662106,"pref":"埼玉県","city":"蓮田市"},
{"id":"0566","lat":35.95717,"lon":139.402905,"pref":"埼玉県","city":"坂戸市"},
{"id":"0567","lat":36.078072,"lon":139.725861,"pref":"埼玉県","city":"幸手市"},
{"id":"0568","lat":35.934515,"lon":139.393098,"pref":"埼玉県","city":"鶴ヶ島市"},
{"id":"0569","lat":35.907796,"lon":139.339026,"pref":"埼玉県","city":"日高市"},
{"id":"0570","lat":35.891152,"lon":139.841375,"pref":"埼玉県","city":"吉川市"},
{"id":"0571","lat":35.879538,"lon":139.519764,"pref":"埼玉県","city":"ふじみ野市"},
{"id":"0572","lat":36.019026,"lon":139.676925,"pref":"埼玉県","city":"白岡市"},
{"id":"0573","lat":36.000112,"lon":139.624185,"pref":"埼玉県","city":"北足立郡伊奈町"},
{"id":"0574","lat":35.828367,"lon":139.526432,"pref":"埼玉県","city":"入間郡三芳町"},
{"id":"0575","lat":35.941501,"lon":139.316067,"pref":"埼玉県","city":"入間郡毛呂山町"},
{"id":"0576","lat":35.964478,"lon":139.294199,"pref":"埼玉県","city":"入間郡越生町"},
{"id":"0577","lat":36.065987,"lon":139.360917,"pref":"埼玉県","city":"比企郡滑川町"},
{"id":"0578","lat":36.056655,"lon":139.320542,"pref":"埼玉県","city":"比企郡嵐山町"},
{"id":"0579","lat":36.056697,"lon":139.261845,"pref":"埼玉県","city":"比企郡小川町"},
{"id":"0580","lat":35.982014,"lon":139.481518,"pref":"埼玉県","city":"比企郡川島町"},
{"id":"0581","lat":36.039853,"lon":139.453728,"pref":"埼玉県","city":"比企郡吉見町"},
{"id":"0582","lat":35.981466,"lon":139.334101,"pref":"埼玉県","city":"比企郡鳩山町"},
{"id":"0583","lat":36.00862,"lon":139.296844,"pref":"埼玉県","city":"比企郡ときがわ町"},
{"id":"0584","lat":35.987284,"lon":139.100046,"pref":"埼玉県","city":"秩父郡横瀬町"},
{"id":"0585","lat":36.07084,"lon":139.098754,"pref":"埼玉県","city":"秩父郡皆野町"},
{"id":"0586","lat":36.114803,"lon":139.109717,"pref":"埼玉県","city":"秩父郡長瀞町"},
{"id":"0587","lat":36.017129,"lon":139.008574,"pref":"埼玉県","city":"秩父郡小鹿野町"},
{"id":"0588","lat":36.058153,"lon":139.194607,"pref":"埼玉県","city":"秩父郡東秩父村"},
{"id":"0589","lat":36.177104,"lon":139.18141,"pref":"埼玉県","city":"児玉郡美里町"},
{"id":"0590","lat":36.213876,"lon":139.101776,"pref":"埼玉県","city":"児玉郡神川町"},
{"id":"0591","lat":36.251607,"lon":139.144826,"pref":"埼玉県","city":"児玉郡上里町"},
{"id":"0592","lat":36.118348,"lon":139.193012,"pref":"埼玉県","city":"大里郡寄居町"},
{"id":"0593","lat":36.022682,"lon":139.722885,"pref":"埼玉県","city":"南埼玉郡宮代町"},
{"id":"0594","lat":36.025765,"lon":139.736709,"pref":"埼玉県","city":"北葛飾郡杉戸町"},
{"id":"0595","lat":35.925774,"lon":139.815178,"pref":"埼玉県","city":"北葛飾郡松伏町"},
{"id":"0596","lat":35.608932,"lon":140.124636,"pref":"千葉県","city":"千葉市中央区"},
{"id":"0597","lat":35.662977,"lon":140.069167,"pref":"千葉県","city":"千葉市花見川区"},
{"id":"0598","lat":35.636212,"lon":140.107083,"pref":"千葉県","city":"千葉市稲毛区"},
{"id":"0599","lat":35.633988,"lon":140.155661,"pref":"千葉県","city":"千葉市若葉区"},
{"id":"0600","lat":35.560459,"lon":140.176164,"pref":"千葉県","city":"千葉市緑区"},
{"id":"0601","lat":35.640485,"lon":140.06304,"pref":"千葉県","city":"千葉市美浜区"},
{"id":"0602","lat":35.734681,"lon":140.826641,"pref":"千葉県","city":"銚子市"},
{"id":"0603","lat":35.721912,"lon":139.93101,"pref":"千葉県","city":"市川市"},
{"id":"0604","lat":35.694706,"lon":139.982618,"pref":"千葉県","city":"船橋市"},
{"id":"0605","lat":34.996506,"lon":139.869965,"pref":"千葉県","city":"館山市"},
{"id":"0606","lat":35.381227,"lon":139.92486,"pref":"千葉県","city":"木更津市"},
{"id":"0607","lat":35.787649,"lon":139.903093,"pref":"千葉県","city":"松戸市"},
{"id":"0608","lat":35.955192,"lon":139.874764,"pref":"千葉県","city":"野田市"},
{"id":"0609","lat":35.428544,"lon":140.288027,"pref":"千葉県","city":"茂原市"},
{"id":"0610","lat":35.776608,"lon":140.318781,"pref":"千葉県","city":"成田市"},
{"id":"0611","lat":35.723486,"lon":140.223964,"pref":"千葉県","city":"佐倉市"},
{"id":"0612","lat":35.559944,"lon":140.366092,"pref":"千葉県","city":"東金市"},
{"id":"0613","lat":35.720434,"lon":140.646469,"pref":"千葉県","city":"旭市"},
{"id":"0614","lat":35.683035,"lon":140.024365,"pref":"千葉県","city":"習志野市"},
{"id":"0615","lat":35.867612,"lon":139.97585,"pref":"千葉県","city":"柏市"},
{"id":"0616","lat":35.152283,"lon":140.320932,"pref":"千葉県","city":"勝浦市"},
{"id":"0617","lat":35.497838,"lon":140.115665,"pref":"千葉県","city":"市原市"},
{"id":"0618","lat":35.85631,"lon":139.90266,"pref":"千葉県","city":"流山市"},
{"id":"0619","lat":35.722468,"lon":140.099772,"pref":"千葉県","city":"八千代市"},
{"id":"0620","lat":35.864123,"lon":140.028225,"pref":"千葉県","city":"我孫子市"},
{"id":"0621","lat":35.113987,"lon":140.098711,"pref":"千葉県","city":"鴨川市"},
{"id":"0622","lat":35.77675,"lon":140.00079,"pref":"千葉県","city":"鎌ケ谷市"},
{"id":"0623","lat":35.33045,"lon":139.902677,"pref":"千葉県","city":"君津市"},
{"id":"0624","lat":35.30412,"lon":139.857105,"pref":"千葉県","city":"富津市"},
{"id":"0625","lat":35.653984,"lon":139.902203,"pref":"千葉県","city":"浦安市"},
{"id":"0626","lat":35.669816,"lon":140.167925,"pref":"千葉県","city":"四街道市"},
{"id":"0627","lat":35.429808,"lon":139.95443,"pref":"千葉県","city":"袖ケ浦市"},
{"id":"0628","lat":35.665917,"lon":140.317952,"pref":"千葉県","city":"八街市"},
{"id":"0629","lat":35.832348,"lon":140.145815,"pref":"千葉県","city":"印西市"},
{"id":"0630","lat":35.7915,"lon":140.056372,"pref":"千葉県","city":"白井市"},
{"id":"0631","lat":35.726808,"lon":140.343058,"pref":"千葉県","city":"富里市"},
{"id":"0632","lat":35.042991,"lon":139.840128,"pref":"千葉県","city":"南房総市"},
{"id":"0633","lat":35.707917,"lon":140.564281,"pref":"千葉県","city":"匝瑳市"},
{"id":"0634","lat":35.897735,"lon":140.499268,"pref":"千葉県","city":"香取市"},
{"id":"0635","lat":35.602964,"lon":140.413506,"pref":"千葉県","city":"山武市"},
{"id":"0636","lat":35.253889,"lon":140.385051,"pref":"千葉県","city":"いすみ市"},
{"id":"0637","lat":35.521708,"lon":140.32096,"pref":"千葉県","city":"大網白里市"},
{"id":"0638","lat":35.724824,"lon":140.269547,"pref":"千葉県","city":"印旛郡酒々井町"},
{"id":"0639","lat":35.840784,"lon":140.243831,"pref":"千葉県","city":"印旛郡栄町"},
{"id":"0640","lat":35.901602,"lon":140.405285,"pref":"千葉県","city":"香取郡神崎町"},
{"id":"0641","lat":35.735434,"lon":140.467728,"pref":"千葉県","city":"香取郡多古町"},
{"id":"0642","lat":35.83715,"lon":140.668581,"pref":"千葉県","city":"香取郡東庄町"},
{"id":"0643","lat":35.535062,"lon":140.44025,"pref":"千葉県","city":"山武郡九十九里町"},
{"id":"0644","lat":35.693056,"lon":140.414194,"pref":"千葉県","city":"山武郡芝山町"},
{"id":"0645","lat":35.665568,"lon":140.504309,"pref":"千葉県","city":"山武郡横芝光町"},
{"id":"0646","lat":35.372623,"lon":140.368659,"pref":"千葉県","city":"長生郡一宮町"},
{"id":"0647","lat":35.361088,"lon":140.319273,"pref":"千葉県","city":"長生郡睦沢町"},
{"id":"0648","lat":35.412184,"lon":140.35406,"pref":"千葉県","city":"長生郡長生村"},
{"id":"0649","lat":35.45434,"lon":140.374234,"pref":"千葉県","city":"長生郡白子町"},
{"id":"0650","lat":35.431125,"lon":140.227059,"pref":"千葉県","city":"長生郡長柄町"},
{"id":"0651","lat":35.386421,"lon":140.237065,"pref":"千葉県","city":"長生郡長南町"},
{"id":"0652","lat":35.285191,"lon":140.245439,"pref":"千葉県","city":"夷隅郡大多喜町"},
{"id":"0653","lat":35.191506,"lon":140.348796,"pref":"千葉県","city":"夷隅郡御宿町"},
{"id":"0654","lat":35.111159,"lon":139.835509,"pref":"千葉県","city":"安房郡鋸南町"},
{"id":"0655","lat":35.694003,"lon":139.753595,"pref":"東京都","city":"千代田区"},
{"id":"0656","lat":35.670651,"lon":139.771861,"pref":"東京都","city":"中央区"},
{"id":"0657","lat":35.658068,"lon":139.751599,"pref":"東京都","city":"港区"},
{"id":"0658","lat":35.69384,"lon":139.703549,"pref":"東京都","city":"新宿区"},
{"id":"0659","lat":35.708068,"lon":139.752167,"pref":"東京都","city":"文京区"},
{"id":"0660","lat":35.712607,"lon":139.779996,"pref":"東京都","city":"台東区"},
{"id":"0661","lat":35.710722,"lon":139.801497,"pref":"東京都","city":"墨田区"},
{"id":"0662","lat":35.672854,"lon":139.81741,"pref":"東京都","city":"江東区"},
{"id":"0663","lat":35.609226,"lon":139.730186,"pref":"東京都","city":"品川区"},
{"id":"0664","lat":35.641463,"lon":139.698171,"pref":"東京都","city":"目黒区"},
{"id":"0665","lat":35.561257,"lon":139.716051,"pref":"東京都","city":"大田区"},
{"id":"0666","lat":35.646572,"lon":139.653247,"pref":"東京都","city":"世田谷区"},
{"id":"0667","lat":35.661777,"lon":139.704051,"pref":"東京都","city":"渋谷区"},
{"id":"0668","lat":35.707399,"lon":139.663835,"pref":"東京都","city":"中野区"},
{"id":"0669","lat":35.699566,"lon":139.636438,"pref":"東京都","city":"杉並区"},
{"id":"0670","lat":35.726118,"lon":139.716605,"pref":"東京都","city":"豊島区"},
{"id":"0671","lat":35.752804,"lon":139.733481,"pref":"東京都","city":"北区"},
{"id":"0672","lat":35.73608,"lon":139.783369,"pref":"東京都","city":"荒川区"},
{"id":"0673","lat":35.751165,"lon":139.709244,"pref":"東京都","city":"板橋区"},
{"id":"0674","lat":35.735623,"lon":139.651658,"pref":"東京都","city":"練馬区"},
{"id":"0675","lat":35.775664,"lon":139.804479,"pref":"東京都","city":"足立区"},
{"id":"0676","lat":35.743575,"lon":139.84718,"pref":"東京都","city":"葛飾区"},
{"id":"0677","lat":35.706657,"lon":139.868427,"pref":"東京都","city":"江戸川区"},
{"id":"0678","lat":35.666339,"lon":139.315806,"pref":"東京都","city":"八王子市"},
{"id":"0679","lat":35.714014,"lon":139.407843,"pref":"東京都","city":"立川市"},
{"id":"0680","lat":35.717784,"lon":139.56626,"pref":"東京都","city":"武蔵野市"},
{"id":"0681","lat":35.683513,"lon":139.559584,"pref":"東京都","city":"三鷹市"},
{"id":"0682","lat":35.787996,"lon":139.27583,"pref":"東京都","city":"青梅市"},
{"id":"0683","lat":35.668974,"lon":139.477661,"pref":"東京都","city":"府中市"},
{"id":"0684","lat":35.705755,"lon":139.353548,"pref":"東京都","city":"昭島市"},
{"id":"0685","lat":35.650615,"lon":139.540694,"pref":"東京都","city":"調布市"},
{"id":"0686","lat":35.546631,"lon":139.438619,"pref":"東京都","city":"町田市"},
{"id":"0687","lat":35.699473,"lon":139.502992,"pref":"東京都","city":"小金井市"},
{"id":"0688","lat":35.728577,"lon":139.477456,"pref":"東京都","city":"小平市"},
{"id":"0689","lat":35.671337,"lon":139.394926,"pref":"東京都","city":"日野市"},
{"id":"0690","lat":35.754597,"lon":139.468489,"pref":"東京都","city":"東村山市"},
{"id":"0691","lat":35.710335,"lon":139.463191,"pref":"東京都","city":"国分寺市"},
{"id":"0692","lat":35.683885,"lon":139.44138,"pref":"東京都","city":"国立市"},
{"id":"0693","lat":35.738451,"lon":139.326932,"pref":"東京都","city":"福生市"},
{"id":"0694","lat":35.634912,"lon":139.578733,"pref":"東京都","city":"狛江市"},
{"id":"0695","lat":35.745369,"lon":139.426593,"pref":"東京都","city":"東大和市"},
{"id":"0696","lat":35.785753,"lon":139.52643,"pref":"東京都","city":"清瀬市"},
{"id":"0697","lat":35.758048,"lon":139.529739,"pref":"東京都","city":"東久留米市"},
{"id":"0698","lat":35.754861,"lon":139.387399,"pref":"東京都","city":"武蔵村山市"},
{"id":"0699","lat":35.637004,"lon":139.446307,"pref":"東京都","city":"多摩市"},
{"id":"0700","lat":35.637924,"lon":139.504567,"pref":"東京都","city":"稲城市"},
{"id":"0701","lat":35.767222,"lon":139.310944,"pref":"東京都","city":"羽村市"},
{"id":"0702","lat":35.72892,"lon":139.294119,"pref":"東京都","city":"あきる野市"},
{"id":"0703","lat":35.725496,"lon":139.538156,"pref":"東京都","city":"西東京市"},
{"id":"0704","lat":35.772036,"lon":139.353846,"pref":"東京都","city":"西多摩郡瑞穂町"},
{"id":"0705","lat":35.742142,"lon":139.257444,"pref":"東京都","city":"西多摩郡日の出町"},
{"id":"0706","lat":35.726839,"lon":139.148866,"pref":"東京都","city":"西多摩郡檜原村"},
{"id":"0707","lat":35.809543,"lon":139.096197,"pref":"東京都","city":"西多摩郡奥多摩町"},
{"id":"0708","lat":34.75004,"lon":139.355579,"pref":"東京都","city":"大島町"},
{"id":"0709","lat":34.529364,"lon":139.282585,"pref":"東京都","city":"利島村"},
{"id":"0710","lat":34.377134,"lon":139.256571,"pref":"東京都","city":"新島村"},
{"id":"0711","lat":34.205267,"lon":139.134255,"pref":"東京都","city":"神津島村"},
{"id":"0712","lat":34.075774,"lon":139.479744,"pref":"東京都","city":"三宅村"},
{"id":"0713","lat":33.897366,"lon":139.596116,"pref":"東京都","city":"御蔵島村"},
{"id":"0714","lat":33.11274,"lon":139.789065,"pref":"東京都","city":"八丈町"},
{"id":"0715","lat":32.466459,"lon":139.763312,"pref":"東京都","city":"青ヶ島村"},
{"id":"0716","lat":27.094366,"lon":142.191918,"pref":"東京都","city":"小笠原村"},
{"id":"0717","lat":35.508404,"lon":139.68254,"pref":"神奈川県","city":"横浜市鶴見区"},
{"id":"0718","lat":35.476901,"lon":139.629431,"pref":"神奈川県","city":"横浜市神奈川区"},
{"id":"0719","lat":35.453623,"lon":139.61696,"pref":"神奈川県","city":"横浜市西区"},
{"id":"0720","lat":35.444699,"lon":139.642178,"pref":"神奈川県","city":"横浜市中区"},
{"id":"0721","lat":35.431462,"lon":139.608837,"pref":"神奈川県","city":"横浜市南区"},
{"id":"0722","lat":35.459953,"lon":139.595979,"pref":"神奈川県","city":"横浜市保土ケ谷区"},
{"id":"0723","lat":35.402439,"lon":139.618433,"pref":"神奈川県","city":"横浜市磯子区"},
{"id":"0724","lat":35.33725,"lon":139.624408,"pref":"神奈川県","city":"横浜市金沢区"},
{"id":"0725","lat":35.519083,"lon":139.633024,"pref":"神奈川県","city":"横浜市港北区"},
{"id":"0726","lat":35.400001,"lon":139.533507,"pref":"神奈川県","city":"横浜市戸塚区"},
{"id":"0727","lat":35.40078,"lon":139.591167,"pref":"神奈川県","city":"横浜市港南区"},
{"id":"0728","lat":35.474836,"lon":139.54472,"pref":"神奈川県","city":"横浜市旭区"},
{"id":"0729","lat":35.512396,"lon":139.538006,"pref":"神奈川県","city":"横浜市緑区"},
{"id":"0730","lat":35.466026,"lon":139.49886,"pref":"神奈川県","city":"横浜市瀬谷区"},
{"id":"0731","lat":35.364348,"lon":139.554076,"pref":"神奈川県","city":"横浜市栄区"},
{"id":"0732","lat":35.417938,"lon":139.488722,"pref":"神奈川県","city":"横浜市泉区"},
{"id":"0733","lat":35.552824,"lon":139.537019,"pref":"神奈川県","city":"横浜市青葉区"},
{"id":"0734","lat":35.544851,"lon":139.57053,"pref":"神奈川県","city":"横浜市都筑区"},
{"id":"0735","lat":35.529667,"lon":139.703848,"pref":"神奈川県","city":"川崎市川崎区"},
{"id":"0736","lat":35.544293,"lon":139.686772,"pref":"神奈川県","city":"川崎市幸区"},
{"id":"0737","lat":35.576371,"lon":139.655709,"pref":"神奈川県","city":"川崎市中原区"},
{"id":"0738","lat":35.599462,"lon":139.607938,"pref":"神奈川県","city":"川崎市高津区"},
{"id":"0739","lat":35.619489,"lon":139.562127,"pref":"神奈川県","city":"川崎市多摩区"},
{"id":"0740","lat":35.589192,"lon":139.578469,"pref":"神奈川県","city":"川崎市宮前区"},
{"id":"0741","lat":35.60373,"lon":139.505747,"pref":"神奈川県","city":"川崎市麻生区"},
{"id":"0742","lat":35.59565,"lon":139.33771,"pref":"神奈川県","city":"相模原市緑区"},
{"id":"0743","lat":35.571384,"lon":139.373246,"pref":"神奈川県","city":"相模原市中央区"},
{"id":"0744","lat":35.530297,"lon":139.430195,"pref":"神奈川県","city":"相模原市南区"},
{"id":"0745","lat":35.281341,"lon":139.672201,"pref":"神奈川県","city":"横須賀市"},
{"id":"0746","lat":35.33511,"lon":139.349476,"pref":"神奈川県","city":"平塚市"},
{"id":"0747","lat":35.319225,"lon":139.546687,"pref":"神奈川県","city":"鎌倉市"},
{"id":"0748","lat":35.33917,"lon":139.490036,"pref":"神奈川県","city":"藤沢市"},
{"id":"0749","lat":35.264564,"lon":139.152154,"pref":"神奈川県","city":"小田原市"},
{"id":"0750","lat":35.33386,"lon":139.404716,"pref":"神奈川県","city":"茅ヶ崎市"},
{"id":"0751","lat":35.295606,"lon":139.580423,"pref":"神奈川県","city":"逗子市"},
{"id":"0752","lat":35.144171,"lon":139.62077,"pref":"神奈川県","city":"三浦市"},
{"id":"0753","lat":35.374736,"lon":139.219943,"pref":"神奈川県","city":"秦野市"},
{"id":"0754","lat":35.443082,"lon":139.362489,"pref":"神奈川県","city":"厚木市"},
{"id":"0755","lat":35.487512,"lon":139.45795,"pref":"神奈川県","city":"大和市"},
{"id":"0756","lat":35.402969,"lon":139.314973,"pref":"神奈川県","city":"伊勢原市"},
{"id":"0757","lat":35.446446,"lon":139.390803,"pref":"神奈川県","city":"海老名市"},
{"id":"0758","lat":35.488587,"lon":139.407673,"pref":"神奈川県","city":"座間市"},
{"id":"0759","lat":35.320715,"lon":139.0996,"pref":"神奈川県","city":"南足柄市"},
{"id":"0760","lat":35.437175,"lon":139.426148,"pref":"神奈川県","city":"綾瀬市"},
{"id":"0761","lat":35.272089,"lon":139.5862,"pref":"神奈川県","city":"三浦郡葉山町"},
{"id":"0762","lat":35.372956,"lon":139.383861,"pref":"神奈川県","city":"高座郡寒川町"},
{"id":"0763","lat":35.30685,"lon":139.311314,"pref":"神奈川県","city":"中郡大磯町"},
{"id":"0764","lat":35.299491,"lon":139.255402,"pref":"神奈川県","city":"中郡二宮町"},
{"id":"0765","lat":35.330717,"lon":139.218774,"pref":"神奈川県","city":"足柄上郡中井町"},
{"id":"0766","lat":35.326674,"lon":139.156577,"pref":"神奈川県","city":"足柄上郡大井町"},
{"id":"0767","lat":35.348159,"lon":139.139375,"pref":"神奈川県","city":"足柄上郡松田町"},
{"id":"0768","lat":35.360605,"lon":139.083831,"pref":"神奈川県","city":"足柄上郡山北町"},
{"id":"0769","lat":35.336427,"lon":139.123183,"pref":"神奈川県","city":"足柄上郡開成町"},
{"id":"0770","lat":35.232355,"lon":139.106937,"pref":"神奈川県","city":"足柄下郡箱根町"},
{"id":"0771","lat":35.158468,"lon":139.137119,"pref":"神奈川県","city":"足柄下郡真鶴町"},
{"id":"0772","lat":35.147964,"lon":139.108317,"pref":"神奈川県","city":"足柄下郡湯河原町"},
{"id":"0773","lat":35.528796,"lon":139.321717,"pref":"神奈川県","city":"愛甲郡愛川町"},
{"id":"0774","lat":35.482383,"lon":139.276382,"pref":"神奈川県","city":"愛甲郡清川村"},
{"id":"0775","lat":37.916243,"lon":139.218588,"pref":"新潟県","city":"新潟市北区"},
{"id":"0776","lat":37.924871,"lon":139.092591,"pref":"新潟県","city":"新潟市東区"},
{"id":"0777","lat":37.916367,"lon":139.036326,"pref":"新潟県","city":"新潟市中央区"},
{"id":"0778","lat":37.867646,"lon":139.093983,"pref":"新潟県","city":"新潟市江南区"},
{"id":"0779","lat":37.788506,"lon":139.114631,"pref":"新潟県","city":"新潟市秋葉区"},
{"id":"0780","lat":37.765785,"lon":139.019127,"pref":"新潟県","city":"新潟市南区"},
{"id":"0781","lat":37.874223,"lon":138.97194,"pref":"新潟県","city":"新潟市西区"},
{"id":"0782","lat":37.760464,"lon":138.889284,"pref":"新潟県","city":"新潟市西蒲区"},
{"id":"0783","lat":37.446265,"lon":138.851277,"pref":"新潟県","city":"長岡市"},
{"id":"0784","lat":37.636768,"lon":138.961689,"pref":"新潟県","city":"三条市"},
{"id":"0785","lat":37.3719,"lon":138.558984,"pref":"新潟県","city":"柏崎市"},
{"id":"0786","lat":37.950886,"lon":139.327892,"pref":"新潟県","city":"新発田市"},
{"id":"0787","lat":37.314339,"lon":138.7951,"pref":"新潟県","city":"小千谷市"},
{"id":"0788","lat":37.666275,"lon":139.040198,"pref":"新潟県","city":"加茂市"},
{"id":"0789","lat":37.127582,"lon":138.755708,"pref":"新潟県","city":"十日町市"},
{"id":"0790","lat":37.531604,"lon":138.912825,"pref":"新潟県","city":"見附市"},
{"id":"0791","lat":38.223979,"lon":139.480021,"pref":"新潟県","city":"村上市"},
{"id":"0792","lat":37.673152,"lon":138.88223,"pref":"新潟県","city":"燕市"},
{"id":"0793","lat":37.039028,"lon":137.862652,"pref":"新潟県","city":"糸魚川市"},
{"id":"0794","lat":37.025196,"lon":138.253473,"pref":"新潟県","city":"妙高市"},
{"id":"0795","lat":37.744536,"lon":139.182568,"pref":"新潟県","city":"五泉市"},
{"id":"0796","lat":37.147848,"lon":138.23608,"pref":"新潟県","city":"上越市"},
{"id":"0797","lat":37.834501,"lon":139.225983,"pref":"新潟県","city":"阿賀野市"},
{"id":"0798","lat":38.018353,"lon":138.368082,"pref":"新潟県","city":"佐渡市"},
{"id":"0799","lat":37.244124,"lon":138.924361,"pref":"新潟県","city":"魚沼市"},
{"id":"0800","lat":37.161428,"lon":138.925448,"pref":"新潟県","city":"南魚沼市"},
{"id":"0801","lat":38.059711,"lon":139.410342,"pref":"新潟県","city":"胎内市"},
{"id":"0802","lat":37.974597,"lon":139.274336,"pref":"新潟県","city":"北蒲原郡聖籠町"},
{"id":"0803","lat":37.691066,"lon":138.855249,"pref":"新潟県","city":"西蒲原郡弥彦村"},
{"id":"0804","lat":37.698826,"lon":139.057982,"pref":"新潟県","city":"南蒲原郡田上町"},
{"id":"0805","lat":37.675485,"lon":139.45878,"pref":"新潟県","city":"東蒲原郡阿賀町"},
{"id":"0806","lat":37.530707,"lon":138.709303,"pref":"新潟県","city":"三島郡出雲崎町"},
{"id":"0807","lat":36.934025,"lon":138.81744,"pref":"新潟県","city":"南魚沼郡湯沢町"},
{"id":"0808","lat":37.014274,"lon":138.652622,"pref":"新潟県","city":"中魚沼郡津南町"},
{"id":"0809","lat":37.422359,"lon":138.622442,"pref":"新潟県","city":"刈羽郡刈羽村"},
{"id":"0810","lat":38.089376,"lon":139.564918,"pref":"新潟県","city":"岩船郡関川村"},
{"id":"0811","lat":38.468267,"lon":139.254439,"pref":"新潟県","city":"岩船郡粟島浦村"},
{"id":"0812","lat":36.695952,"lon":137.213677,"pref":"富山県","city":"富山市"},
{"id":"0813","lat":36.754096,"lon":137.025728,"pref":"富山県","city":"高岡市"},
{"id":"0814","lat":36.827367,"lon":137.409215,"pref":"富山県","city":"魚津市"},
{"id":"0815","lat":36.855981,"lon":136.972849,"pref":"富山県","city":"氷見市"},
{"id":"0816","lat":36.764378,"lon":137.341191,"pref":"富山県","city":"滑川市"},
{"id":"0817","lat":36.871508,"lon":137.44803,"pref":"富山県","city":"黒部市"},
{"id":"0818","lat":36.647534,"lon":136.962009,"pref":"富山県","city":"砺波市"},
{"id":"0819","lat":36.675575,"lon":136.868622,"pref":"富山県","city":"小矢部市"},
{"id":"0820","lat":36.557513,"lon":136.875336,"pref":"富山県","city":"南砺市"},
{"id":"0821","lat":36.782455,"lon":137.079614,"pref":"富山県","city":"射水市"},
{"id":"0822","lat":36.703531,"lon":137.307377,"pref":"富山県","city":"中新川郡舟橋村"},
{"id":"0823","lat":36.698414,"lon":137.36238,"pref":"富山県","city":"中新川郡上市町"},
{"id":"0824","lat":36.663522,"lon":137.313697,"pref":"富山県","city":"中新川郡立山町"},
{"id":"0825","lat":36.933511,"lon":137.502045,"pref":"富山県","city":"下新川郡入善町"},
{"id":"0826","lat":36.94619,"lon":137.559943,"pref":"富山県","city":"下新川郡朝日町"},
{"id":"0827","lat":36.561325,"lon":136.656205,"pref":"石川県","city":"金沢市"},
{"id":"0828","lat":37.043102,"lon":136.967518,"pref":"石川県","city":"七尾市"},
{"id":"0829","lat":36.408351,"lon":136.445571,"pref":"石川県","city":"小松市"},
{"id":"0830","lat":37.39059,"lon":136.899196,"pref":"石川県","city":"輪島市"},
{"id":"0831","lat":37.436347,"lon":137.260436,"pref":"石川県","city":"珠洲市"},
{"id":"0832","lat":36.302624,"lon":136.314627,"pref":"石川県","city":"加賀市"},
{"id":"0833","lat":36.893599,"lon":136.778996,"pref":"石川県","city":"羽咋市"},
{"id":"0834","lat":36.719826,"lon":136.706727,"pref":"石川県","city":"かほく市"},
{"id":"0835","lat":36.514427,"lon":136.565892,"pref":"石川県","city":"白山市"},
{"id":"0836","lat":36.446941,"lon":136.554242,"pref":"石川県","city":"能美市"},
{"id":"0837","lat":36.519704,"lon":136.609971,"pref":"石川県","city":"野々市市"},
{"id":"0838","lat":36.46863,"lon":136.542304,"pref":"石川県","city":"能美郡川北町"},
{"id":"0839","lat":36.668693,"lon":136.728442,"pref":"石川県","city":"河北郡津幡町"},
{"id":"0840","lat":36.653494,"lon":136.645086,"pref":"石川県","city":"河北郡内灘町"},
{"id":"0841","lat":37.006312,"lon":136.77801,"pref":"石川県","city":"羽咋郡志賀町"},
{"id":"0842","lat":36.862773,"lon":136.797529,"pref":"石川県","city":"羽咋郡宝達志水町"},
{"id":"0843","lat":36.988884,"lon":136.901832,"pref":"石川県","city":"鹿島郡中能登町"},
{"id":"0844","lat":37.230995,"lon":136.912475,"pref":"石川県","city":"鳳珠郡穴水町"},
{"id":"0845","lat":37.353216,"lon":137.244521,"pref":"石川県","city":"鳳珠郡能登町"},
{"id":"0846","lat":36.064067,"lon":136.219494,"pref":"福井県","city":"福井市"},
{"id":"0847","lat":35.645244,"lon":136.055441,"pref":"福井県","city":"敦賀市"},
{"id":"0848","lat":35.495593,"lon":135.746644,"pref":"福井県","city":"小浜市"},
{"id":"0849","lat":35.979814,"lon":136.487564,"pref":"福井県","city":"大野市"},
{"id":"0850","lat":36.060945,"lon":136.500584,"pref":"福井県","city":"勝山市"},
{"id":"0851","lat":35.956553,"lon":136.184474,"pref":"福井県","city":"鯖江市"},
{"id":"0852","lat":36.211353,"lon":136.229025,"pref":"福井県","city":"あわら市"},
{"id":"0853","lat":35.903499,"lon":136.16878,"pref":"福井県","city":"越前市"},
{"id":"0854","lat":36.166925,"lon":136.231457,"pref":"福井県","city":"坂井市"},
{"id":"0855","lat":36.092256,"lon":136.298706,"pref":"福井県","city":"吉田郡永平寺町"},
{"id":"0856","lat":35.890472,"lon":136.343907,"pref":"福井県","city":"今立郡池田町"},
{"id":"0857","lat":35.835164,"lon":136.194465,"pref":"福井県","city":"南条郡南越前町"},
{"id":"0858","lat":35.974208,"lon":136.129743,"pref":"福井県","city":"丹生郡越前町"},
{"id":"0859","lat":35.60053,"lon":135.940543,"pref":"福井県","city":"三方郡美浜町"},
{"id":"0860","lat":35.490428,"lon":135.55099,"pref":"福井県","city":"大飯郡高浜町"},
{"id":"0861","lat":35.481166,"lon":135.617828,"pref":"福井県","city":"大飯郡おおい町"},
{"id":"0862","lat":35.461888,"lon":135.857211,"pref":"福井県","city":"三方上中郡若狭町"},
{"id":"0863","lat":35.66228,"lon":138.568202,"pref":"山梨県","city":"甲府市"},
{"id":"0864","lat":35.487497,"lon":138.807854,"pref":"山梨県","city":"富士吉田市"},
{"id":"0865","lat":35.55168,"lon":138.905473,"pref":"山梨県","city":"都留市"},
{"id":"0866","lat":35.693394,"lon":138.686914,"pref":"山梨県","city":"山梨市"},
{"id":"0867","lat":35.610485,"lon":138.940028,"pref":"山梨県","city":"大月市"},
{"id":"0868","lat":35.708897,"lon":138.446127,"pref":"山梨県","city":"韮崎市"},
{"id":"0869","lat":35.608328,"lon":138.464966,"pref":"山梨県","city":"南アルプス市"},
{"id":"0870","lat":35.77653,"lon":138.423781,"pref":"山梨県","city":"北杜市"},
{"id":"0871","lat":35.686259,"lon":138.487257,"pref":"山梨県","city":"甲斐市"},
{"id":"0872","lat":35.64736,"lon":138.639786,"pref":"山梨県","city":"笛吹市"},
{"id":"0873","lat":35.630259,"lon":139.108599,"pref":"山梨県","city":"上野原市"},
{"id":"0874","lat":35.704316,"lon":138.729404,"pref":"山梨県","city":"甲州市"},
{"id":"0875","lat":35.599629,"lon":138.517272,"pref":"山梨県","city":"中央市"},
{"id":"0876","lat":35.565303,"lon":138.502369,"pref":"山梨県","city":"西八代郡市川三郷町"},
{"id":"0877","lat":35.412917,"lon":138.362759,"pref":"山梨県","city":"南巨摩郡早川町"},
{"id":"0878","lat":35.467494,"lon":138.44246,"pref":"山梨県","city":"南巨摩郡身延町"},
{"id":"0879","lat":35.242352,"lon":138.486109,"pref":"山梨県","city":"南巨摩郡南部町"},
{"id":"0880","lat":35.561156,"lon":138.461384,"pref":"山梨県","city":"南巨摩郡富士川町"},
{"id":"0881","lat":35.627926,"lon":138.535142,"pref":"山梨県","city":"中巨摩郡昭和町"},
{"id":"0882","lat":35.527956,"lon":139.033379,"pref":"山梨県","city":"南都留郡道志村"},
{"id":"0883","lat":35.524069,"lon":138.846891,"pref":"山梨県","city":"南都留郡西桂町"},
{"id":"0884","lat":35.460098,"lon":138.847861,"pref":"山梨県","city":"南都留郡忍野村"},
{"id":"0885","lat":35.410645,"lon":138.860917,"pref":"山梨県","city":"南都留郡山中湖村"},
{"id":"0886","lat":35.481392,"lon":138.706362,"pref":"山梨県","city":"南都留郡鳴沢村"},
{"id":"0887","lat":35.497314,"lon":138.755084,"pref":"山梨県","city":"南都留郡富士河口湖町"},
{"id":"0888","lat":35.760124,"lon":138.940161,"pref":"山梨県","city":"北都留郡小菅村"},
{"id":"0889","lat":35.789712,"lon":138.922231,"pref":"山梨県","city":"北都留郡丹波山村"},
{"id":"0890","lat":36.64855,"lon":138.194243,"pref":"長野県","city":"長野市"},
{"id":"0891","lat":36.238038,"lon":137.972034,"pref":"長野県","city":"松本市"},
{"id":"0892","lat":36.401912,"lon":138.248889,"pref":"長野県","city":"上田市"},
{"id":"0893","lat":36.067012,"lon":138.049326,"pref":"長野県","city":"岡谷市"},
{"id":"0894","lat":35.514978,"lon":137.821447,"pref":"長野県","city":"飯田市"},
{"id":"0895","lat":36.039142,"lon":138.114182,"pref":"長野県","city":"諏訪市"},
{"id":"0896","lat":36.651097,"lon":138.307192,"pref":"長野県","city":"須坂市"},
{"id":"0897","lat":36.327419,"lon":138.42588,"pref":"長野県","city":"小諸市"},
{"id":"0898","lat":35.827481,"lon":137.95408,"pref":"長野県","city":"伊那市"},
{"id":"0899","lat":35.728814,"lon":137.933782,"pref":"長野県","city":"駒ヶ根市"},
{"id":"0900","lat":36.742044,"lon":138.36945,"pref":"長野県","city":"中野市"},
{"id":"0901","lat":36.503018,"lon":137.851094,"pref":"長野県","city":"大町市"},
{"id":"0902","lat":36.851745,"lon":138.365495,"pref":"長野県","city":"飯山市"},
{"id":"0903","lat":35.995571,"lon":138.158893,"pref":"長野県","city":"茅野市"},
{"id":"0904","lat":36.114972,"lon":137.953449,"pref":"長野県","city":"塩尻市"},
{"id":"0905","lat":36.248868,"lon":138.476831,"pref":"長野県","city":"佐久市"},
{"id":"0906","lat":36.533897,"lon":138.120108,"pref":"長野県","city":"千曲市"},
{"id":"0907","lat":36.359477,"lon":138.330247,"pref":"長野県","city":"東御市"},
{"id":"0908","lat":36.303951,"lon":137.905801,"pref":"長野県","city":"安曇野市"},
{"id":"0909","lat":36.095097,"lon":138.483472,"pref":"長野県","city":"南佐久郡小海町"},
{"id":"0910","lat":35.975487,"lon":138.578605,"pref":"長野県","city":"南佐久郡川上村"},
{"id":"0911","lat":36.020856,"lon":138.492091,"pref":"長野県","city":"南佐久郡南牧村"},
{"id":"0912","lat":36.035985,"lon":138.54699,"pref":"長野県","city":"南佐久郡南相木村"},
{"id":"0913","lat":36.059169,"lon":138.550883,"pref":"長野県","city":"南佐久郡北相木村"},
{"id":"0914","lat":36.161106,"lon":138.483544,"pref":"長野県","city":"南佐久郡佐久穂町"},
{"id":"0915","lat":36.34829,"lon":138.596955,"pref":"長野県","city":"北佐久郡軽井沢町"},
{"id":"0916","lat":36.321183,"lon":138.508784,"pref":"長野県","city":"北佐久郡御代田町"},
{"id":"0917","lat":36.27207,"lon":138.315972,"pref":"長野県","city":"北佐久郡立科町"},
{"id":"0918","lat":36.370346,"lon":138.12884,"pref":"長野県","city":"小県郡青木村"},
{"id":"0919","lat":36.255854,"lon":138.267866,"pref":"長野県","city":"小県郡長和町"},
{"id":"0920","lat":36.069559,"lon":138.08017,"pref":"長野県","city":"諏訪郡下諏訪町"},
{"id":"0921","lat":35.914621,"lon":138.240699,"pref":"長野県","city":"諏訪郡富士見町"},
{"id":"0922","lat":35.964456,"lon":138.21772,"pref":"長野県","city":"諏訪郡原村"},
{"id":"0923","lat":35.982513,"lon":137.987484,"pref":"長野県","city":"上伊那郡辰野町"},
{"id":"0924","lat":35.915134,"lon":137.981944,"pref":"長野県","city":"上伊那郡箕輪町"},
{"id":"0925","lat":35.676737,"lon":137.91968,"pref":"長野県","city":"上伊那郡飯島町"},
{"id":"0926","lat":35.8729,"lon":137.975024,"pref":"長野県","city":"上伊那郡南箕輪村"},
{"id":"0927","lat":35.634537,"lon":137.946058,"pref":"長野県","city":"上伊那郡中川村"},
{"id":"0928","lat":35.768904,"lon":137.944307,"pref":"長野県","city":"上伊那郡宮田村"},
{"id":"0929","lat":35.597292,"lon":137.909567,"pref":"長野県","city":"下伊那郡松川町"},
{"id":"0930","lat":35.551497,"lon":137.878437,"pref":"長野県","city":"下伊那郡高森町"},
{"id":"0931","lat":35.32364,"lon":137.816055,"pref":"長野県","city":"下伊那郡阿南町"},
{"id":"0932","lat":35.443769,"lon":137.747505,"pref":"長野県","city":"下伊那郡阿智村"},
{"id":"0933","lat":35.323236,"lon":137.63003,"pref":"長野県","city":"下伊那郡平谷村"},
{"id":"0934","lat":35.253077,"lon":137.58126,"pref":"長野県","city":"下伊那郡根羽村"},
{"id":"0935","lat":35.397414,"lon":137.786051,"pref":"長野県","city":"下伊那郡下條村"},
{"id":"0936","lat":35.271046,"lon":137.711313,"pref":"長野県","city":"下伊那郡売木村"},
{"id":"0937","lat":35.276227,"lon":137.85414,"pref":"長野県","city":"下伊那郡天龍村"},
{"id":"0938","lat":35.377523,"lon":137.846015,"pref":"長野県","city":"下伊那郡泰阜村"},
{"id":"0939","lat":35.513682,"lon":137.8737,"pref":"長野県","city":"下伊那郡喬木村"},
{"id":"0940","lat":35.551439,"lon":137.895975,"pref":"長野県","city":"下伊那郡豊丘村"},
{"id":"0941","lat":35.578222,"lon":138.034017,"pref":"長野県","city":"下伊那郡大鹿村"},
{"id":"0942","lat":35.784076,"lon":137.694069,"pref":"長野県","city":"木曽郡上松町"},
{"id":"0943","lat":35.603756,"lon":137.609016,"pref":"長野県","city":"木曽郡南木曽町"},
{"id":"0944","lat":35.936437,"lon":137.783301,"pref":"長野県","city":"木曽郡木祖村"},
{"id":"0945","lat":35.809395,"lon":137.550969,"pref":"長野県","city":"木曽郡王滝村"},
{"id":"0946","lat":35.682911,"lon":137.664918,"pref":"長野県","city":"木曽郡大桑村"},
{"id":"0947","lat":35.842431,"lon":137.691508,"pref":"長野県","city":"木曽郡木曽町"},
{"id":"0948","lat":36.456089,"lon":138.045289,"pref":"長野県","city":"東筑摩郡麻績村"},
{"id":"0949","lat":36.425248,"lon":137.927383,"pref":"長野県","city":"東筑摩郡生坂村"},
{"id":"0950","lat":36.168028,"lon":137.879155,"pref":"長野県","city":"東筑摩郡山形村"},
{"id":"0951","lat":36.12355,"lon":137.866133,"pref":"長野県","city":"東筑摩郡朝日村"},
{"id":"0952","lat":36.402553,"lon":138.011938,"pref":"長野県","city":"東筑摩郡筑北村"},
{"id":"0953","lat":36.421366,"lon":137.874502,"pref":"長野県","city":"北安曇郡池田町"},
{"id":"0954","lat":36.424076,"lon":137.854498,"pref":"長野県","city":"北安曇郡松川村"},
{"id":"0955","lat":36.69818,"lon":137.86185,"pref":"長野県","city":"北安曇郡白馬村"},
{"id":"0956","lat":36.779067,"lon":137.908405,"pref":"長野県","city":"北安曇郡小谷村"},
{"id":"0957","lat":36.46182,"lon":138.180106,"pref":"長野県","city":"埴科郡坂城町"},
{"id":"0958","lat":36.697492,"lon":138.312037,"pref":"長野県","city":"上高井郡小布施町"},
{"id":"0959","lat":36.679768,"lon":138.363255,"pref":"長野県","city":"上高井郡高山村"},
{"id":"0960","lat":36.744634,"lon":138.412596,"pref":"長野県","city":"下高井郡山ノ内町"},
{"id":"0961","lat":36.858406,"lon":138.406829,"pref":"長野県","city":"下高井郡木島平村"},
{"id":"0962","lat":36.922902,"lon":138.440641,"pref":"長野県","city":"下高井郡野沢温泉村"},
{"id":"0963","lat":36.806404,"lon":138.207113,"pref":"長野県","city":"上水内郡信濃町"},
{"id":"0964","lat":36.617271,"lon":137.974724,"pref":"長野県","city":"上水内郡小川村"},
{"id":"0965","lat":36.763185,"lon":138.254809,"pref":"長野県","city":"上水内郡飯綱町"},
{"id":"0966","lat":36.987514,"lon":138.577069,"pref":"長野県","city":"下水内郡栄村"},
{"id":"0967","lat":35.423298,"lon":136.760654,"pref":"岐阜県","city":"岐阜市"},
{"id":"0968","lat":35.359384,"lon":136.61275,"pref":"岐阜県","city":"大垣市"},
{"id":"0969","lat":36.146124,"lon":137.252173,"pref":"岐阜県","city":"高山市"},
{"id":"0970","lat":35.3328,"lon":137.132077,"pref":"岐阜県","city":"多治見市"},
{"id":"0971","lat":35.495738,"lon":136.917842,"pref":"岐阜県","city":"関市"},
{"id":"0972","lat":35.487548,"lon":137.500509,"pref":"岐阜県","city":"中津川市"},
{"id":"0973","lat":35.54477,"lon":136.90754,"pref":"岐阜県","city":"美濃市"},
{"id":"0974","lat":35.361712,"lon":137.254587,"pref":"岐阜県","city":"瑞浪市"},
{"id":"0975","lat":35.31991,"lon":136.703349,"pref":"岐阜県","city":"羽島市"},
{"id":"0976","lat":35.449314,"lon":137.412808,"pref":"岐阜県","city":"恵那市"},
{"id":"0977","lat":35.440242,"lon":137.015664,"pref":"岐阜県","city":"美濃加茂市"},
{"id":"0978","lat":35.3525,"lon":137.183202,"pref":"岐阜県","city":"土岐市"},
{"id":"0979","lat":35.398869,"lon":136.848264,"pref":"岐阜県","city":"各務原市"},
{"id":"0980","lat":35.426121,"lon":137.061011,"pref":"岐阜県","city":"可児市"},
{"id":"0981","lat":35.506109,"lon":136.781372,"pref":"岐阜県","city":"山県市"},
{"id":"0982","lat":35.404094,"lon":136.649774,"pref":"岐阜県","city":"瑞穂市"},
{"id":"0983","lat":36.238124,"lon":137.186317,"pref":"岐阜県","city":"飛騨市"},
{"id":"0984","lat":35.483047,"lon":136.678766,"pref":"岐阜県","city":"本巣市"},
{"id":"0985","lat":35.748577,"lon":136.964354,"pref":"岐阜県","city":"郡上市"},
{"id":"0986","lat":35.805882,"lon":137.2441,"pref":"岐阜県","city":"下呂市"},
{"id":"0987","lat":35.220492,"lon":136.636662,"pref":"岐阜県","city":"海津市"},
{"id":"0988","lat":35.389722,"lon":136.783317,"pref":"岐阜県","city":"羽島郡岐南町"},
{"id":"0989","lat":35.3672,"lon":136.763167,"pref":"岐阜県","city":"羽島郡笠松町"},
{"id":"0990","lat":35.308333,"lon":136.561555,"pref":"岐阜県","city":"養老郡養老町"},
{"id":"0991","lat":35.370254,"lon":136.527102,"pref":"岐阜県","city":"不破郡垂井町"},
{"id":"0992","lat":35.365517,"lon":136.466982,"pref":"岐阜県","city":"不破郡関ケ原町"},
{"id":"0993","lat":35.417368,"lon":136.608459,"pref":"岐阜県","city":"安八郡神戸町"},
{"id":"0994","lat":35.285108,"lon":136.637435,"pref":"岐阜県","city":"安八郡輪之内町"},
{"id":"0995","lat":35.335391,"lon":136.665409,"pref":"岐阜県","city":"安八郡安八町"},
{"id":"0996","lat":35.487309,"lon":136.568653,"pref":"岐阜県","city":"揖斐郡揖斐川町"},
{"id":"0997","lat":35.470614,"lon":136.627552,"pref":"岐阜県","city":"揖斐郡大野町"},
{"id":"0998","lat":35.442259,"lon":136.572926,"pref":"岐阜県","city":"揖斐郡池田町"},
{"id":"0999","lat":35.436948,"lon":136.685967,"pref":"岐阜県","city":"本巣郡北方町"},
{"id":"1000","lat":35.426662,"lon":136.985459,"pref":"岐阜県","city":"加茂郡坂祝町"},
{"id":"1001","lat":35.484883,"lon":136.979824,"pref":"岐阜県","city":"加茂郡富加町"},
{"id":"1002","lat":35.486579,"lon":137.070608,"pref":"岐阜県","city":"加茂郡川辺町"},
{"id":"1003","lat":35.543724,"lon":137.119833,"pref":"岐阜県","city":"加茂郡七宗町"},
{"id":"1004","lat":35.475952,"lon":137.141502,"pref":"岐阜県","city":"加茂郡八百津町"},
{"id":"1005","lat":35.581859,"lon":137.187824,"pref":"岐阜県","city":"加茂郡白川町"},
{"id":"1006","lat":35.642561,"lon":137.323751,"pref":"岐阜県","city":"加茂郡東白川村"},
{"id":"1007","lat":35.434245,"lon":137.13079,"pref":"岐阜県","city":"可児郡御嵩町"},
{"id":"1008","lat":36.270806,"lon":136.898478,"pref":"岐阜県","city":"大野郡白川村"},
{"id":"1009","lat":34.97514,"lon":138.383243,"pref":"静岡県","city":"静岡市葵区"},
{"id":"1010","lat":34.960745,"lon":138.404039,"pref":"静岡県","city":"静岡市駿河区"},
{"id":"1011","lat":35.015888,"lon":138.489528,"pref":"静岡県","city":"静岡市清水区"},
{"id":"1012","lat":34.710896,"lon":137.72594,"pref":"静岡県","city":"浜松市中央区"},
{"id":"1013","lat":34.791664,"lon":137.783231,"pref":"静岡県","city":"浜松市浜名区"},
{"id":"1014","lat":34.872649,"lon":137.816265,"pref":"静岡県","city":"浜松市天竜区"},
{"id":"1015","lat":35.095584,"lon":138.863493,"pref":"静岡県","city":"沼津市"},
{"id":"1016","lat":35.096276,"lon":139.071705,"pref":"静岡県","city":"熱海市"},
{"id":"1017","lat":35.118402,"lon":138.918513,"pref":"静岡県","city":"三島市"},
{"id":"1018","lat":35.222054,"lon":138.621643,"pref":"静岡県","city":"富士宮市"},
{"id":"1019","lat":34.965671,"lon":139.101936,"pref":"静岡県","city":"伊東市"},
{"id":"1020","lat":34.836364,"lon":138.175997,"pref":"静岡県","city":"島田市"},
{"id":"1021","lat":35.161399,"lon":138.676273,"pref":"静岡県","city":"富士市"},
{"id":"1022","lat":34.717904,"lon":137.851513,"pref":"静岡県","city":"磐田市"},
{"id":"1023","lat":34.86692,"lon":138.323189,"pref":"静岡県","city":"焼津市"},
{"id":"1024","lat":34.768767,"lon":137.998168,"pref":"静岡県","city":"掛川市"},
{"id":"1025","lat":34.867367,"lon":138.257458,"pref":"静岡県","city":"藤枝市"},
{"id":"1026","lat":35.308584,"lon":138.934506,"pref":"静岡県","city":"御殿場市"},
{"id":"1027","lat":34.750174,"lon":137.924679,"pref":"静岡県","city":"袋井市"},
{"id":"1028","lat":34.679533,"lon":138.945316,"pref":"静岡県","city":"下田市"},
{"id":"1029","lat":35.173883,"lon":138.906729,"pref":"静岡県","city":"裾野市"},
{"id":"1030","lat":34.718466,"lon":137.531626,"pref":"静岡県","city":"湖西市"},
{"id":"1031","lat":34.976586,"lon":138.946704,"pref":"静岡県","city":"伊豆市"},
{"id":"1032","lat":34.637987,"lon":138.128127,"pref":"静岡県","city":"御前崎市"},
{"id":"1033","lat":34.757746,"lon":138.084582,"pref":"静岡県","city":"菊川市"},
{"id":"1034","lat":35.027735,"lon":138.928921,"pref":"静岡県","city":"伊豆の国市"},
{"id":"1035","lat":34.740043,"lon":138.224652,"pref":"静岡県","city":"牧之原市"},
{"id":"1036","lat":34.772835,"lon":139.041311,"pref":"静岡県","city":"賀茂郡東伊豆町"},
{"id":"1037","lat":34.757033,"lon":138.987538,"pref":"静岡県","city":"賀茂郡河津町"},
{"id":"1038","lat":34.651092,"lon":138.858527,"pref":"静岡県","city":"賀茂郡南伊豆町"},
{"id":"1039","lat":34.752769,"lon":138.778726,"pref":"静岡県","city":"賀茂郡松崎町"},
{"id":"1040","lat":34.771676,"lon":138.775356,"pref":"静岡県","city":"賀茂郡西伊豆町"},
{"id":"1041","lat":35.088973,"lon":138.953366,"pref":"静岡県","city":"田方郡函南町"},
{"id":"1042","lat":35.099015,"lon":138.902717,"pref":"静岡県","city":"駿東郡清水町"},
{"id":"1043","lat":35.13767,"lon":138.897178,"pref":"静岡県","city":"駿東郡長泉町"},
{"id":"1044","lat":35.360107,"lon":138.987298,"pref":"静岡県","city":"駿東郡小山町"},
{"id":"1045","lat":34.77087,"lon":138.251993,"pref":"静岡県","city":"榛原郡吉田町"},
{"id":"1046","lat":35.046833,"lon":138.081695,"pref":"静岡県","city":"榛原郡川根本町"},
{"id":"1047","lat":34.835627,"lon":137.927019,"pref":"静岡県","city":"周智郡森町"},
{"id":"1048","lat":35.166486,"lon":136.946434,"pref":"愛知県","city":"名古屋市千種区"},
{"id":"1049","lat":35.179325,"lon":136.925993,"pref":"愛知県","city":"名古屋市東区"},
{"id":"1050","lat":35.194206,"lon":136.911519,"pref":"愛知県","city":"名古屋市北区"},
{"id":"1051","lat":35.189117,"lon":136.890033,"pref":"愛知県","city":"名古屋市西区"},
{"id":"1052","lat":35.168747,"lon":136.873015,"pref":"愛知県","city":"名古屋市中村区"},
{"id":"1053","lat":35.168707,"lon":136.910251,"pref":"愛知県","city":"名古屋市中区"},
{"id":"1054","lat":35.150199,"lon":136.934124,"pref":"愛知県","city":"名古屋市昭和区"},
{"id":"1055","lat":35.131441,"lon":136.934961,"pref":"愛知県","city":"名古屋市瑞穂区"},
{"id":"1056","lat":35.128545,"lon":136.91028,"pref":"愛知県","city":"名古屋市熱田区"},
{"id":"1057","lat":35.141539,"lon":136.854793,"pref":"愛知県","city":"名古屋市中川区"},
{"id":"1058","lat":35.107772,"lon":136.885567,"pref":"愛知県","city":"名古屋市港区"},
{"id":"1059","lat":35.095169,"lon":136.931242,"pref":"愛知県","city":"名古屋市南区"},
{"id":"1060","lat":35.203335,"lon":136.976314,"pref":"愛知県","city":"名古屋市守山区"},
{"id":"1061","lat":35.070805,"lon":136.952238,"pref":"愛知県","city":"名古屋市緑区"},
{"id":"1062","lat":35.175848,"lon":137.010183,"pref":"愛知県","city":"名古屋市名東区"},
{"id":"1063","lat":35.122671,"lon":136.974982,"pref":"愛知県","city":"名古屋市天白区"},
{"id":"1064","lat":34.7692,"lon":137.391466,"pref":"愛知県","city":"豊橋市"},
{"id":"1065","lat":34.954379,"lon":137.174329,"pref":"愛知県","city":"岡崎市"},
{"id":"1066","lat":35.30389,"lon":136.802933,"pref":"愛知県","city":"一宮市"},
{"id":"1067","lat":35.223614,"lon":137.084171,"pref":"愛知県","city":"瀬戸市"},
{"id":"1068","lat":34.891718,"lon":136.937961,"pref":"愛知県","city":"半田市"},
{"id":"1069","lat":35.247611,"lon":136.972224,"pref":"愛知県","city":"春日井市"},
{"id":"1070","lat":34.826851,"lon":137.375542,"pref":"愛知県","city":"豊川市"},
{"id":"1071","lat":35.177029,"lon":136.741214,"pref":"愛知県","city":"津島市"},
{"id":"1072","lat":34.884804,"lon":136.993375,"pref":"愛知県","city":"碧南市"},
{"id":"1073","lat":34.989225,"lon":137.002107,"pref":"愛知県","city":"刈谷市"},
{"id":"1074","lat":35.082395,"lon":137.156249,"pref":"愛知県","city":"豊田市"},
{"id":"1075","lat":34.958641,"lon":137.080297,"pref":"愛知県","city":"安城市"},
{"id":"1076","lat":34.861937,"lon":137.06185,"pref":"愛知県","city":"西尾市"},
{"id":"1077","lat":34.8265,"lon":137.219516,"pref":"愛知県","city":"蒲郡市"},
{"id":"1078","lat":35.378607,"lon":136.944564,"pref":"愛知県","city":"犬山市"},
{"id":"1079","lat":34.8867,"lon":136.832397,"pref":"愛知県","city":"常滑市"},
{"id":"1080","lat":35.332011,"lon":136.870617,"pref":"愛知県","city":"江南市"},
{"id":"1081","lat":35.29031,"lon":136.910952,"pref":"愛知県","city":"小牧市"},
{"id":"1082","lat":35.248132,"lon":136.780202,"pref":"愛知県","city":"稲沢市"},
{"id":"1083","lat":34.899229,"lon":137.498476,"pref":"愛知県","city":"新城市"},
{"id":"1084","lat":35.022843,"lon":136.90253,"pref":"愛知県","city":"東海市"},
{"id":"1085","lat":35.011657,"lon":136.963835,"pref":"愛知県","city":"大府市"},
{"id":"1086","lat":34.996533,"lon":136.864755,"pref":"愛知県","city":"知多市"},
{"id":"1087","lat":35.001272,"lon":137.050749,"pref":"愛知県","city":"知立市"},
{"id":"1088","lat":35.216513,"lon":137.035396,"pref":"愛知県","city":"尾張旭市"},
{"id":"1089","lat":34.927643,"lon":136.987677,"pref":"愛知県","city":"高浜市"},
{"id":"1090","lat":35.279503,"lon":136.871431,"pref":"愛知県","city":"岩倉市"},
{"id":"1091","lat":35.053688,"lon":137.012997,"pref":"愛知県","city":"豊明市"},
{"id":"1092","lat":35.132015,"lon":137.039412,"pref":"愛知県","city":"日進市"},
{"id":"1093","lat":34.668806,"lon":137.264203,"pref":"愛知県","city":"田原市"},
{"id":"1094","lat":35.153141,"lon":136.7281,"pref":"愛知県","city":"愛西市"},
{"id":"1095","lat":35.203381,"lon":136.865521,"pref":"愛知県","city":"清須市"},
{"id":"1096","lat":35.245668,"lon":136.866008,"pref":"愛知県","city":"北名古屋市"},
{"id":"1097","lat":35.110018,"lon":136.724739,"pref":"愛知県","city":"弥富市"},
{"id":"1098","lat":35.08941,"lon":137.074854,"pref":"愛知県","city":"みよし市"},
{"id":"1099","lat":35.170304,"lon":136.80083,"pref":"愛知県","city":"あま市"},
{"id":"1100","lat":35.184126,"lon":137.048762,"pref":"愛知県","city":"長久手市"},
{"id":"1101","lat":35.096748,"lon":137.052553,"pref":"愛知県","city":"愛知郡東郷町"},
{"id":"1102","lat":35.250474,"lon":136.912006,"pref":"愛知県","city":"西春日井郡豊山町"},
{"id":"1103","lat":35.332436,"lon":136.90767,"pref":"愛知県","city":"丹羽郡大口町"},
{"id":"1104","lat":35.35914,"lon":136.913079,"pref":"愛知県","city":"丹羽郡扶桑町"},
{"id":"1105","lat":35.175078,"lon":136.820095,"pref":"愛知県","city":"海部郡大治町"},
{"id":"1106","lat":35.132331,"lon":136.786746,"pref":"愛知県","city":"海部郡蟹江町"},
{"id":"1107","lat":35.078848,"lon":136.791078,"pref":"愛知県","city":"海部郡飛島村"},
{"id":"1108","lat":34.932611,"lon":136.915554,"pref":"愛知県","city":"知多郡阿久比町"},
{"id":"1109","lat":34.977094,"lon":136.965622,"pref":"愛知県","city":"知多郡東浦町"},
{"id":"1110","lat":34.715167,"lon":136.92997,"pref":"愛知県","city":"知多郡南知多町"},
{"id":"1111","lat":34.778815,"lon":136.908237,"pref":"愛知県","city":"知多郡美浜町"},
{"id":"1112","lat":34.851134,"lon":136.914803,"pref":"愛知県","city":"知多郡武豊町"},
{"id":"1113","lat":34.864442,"lon":137.165617,"pref":"愛知県","city":"額田郡幸田町"},
{"id":"1114","lat":35.097219,"lon":137.571445,"pref":"愛知県","city":"北設楽郡設楽町"},
{"id":"1115","lat":35.076939,"lon":137.697837,"pref":"愛知県","city":"北設楽郡東栄町"},
{"id":"1116","lat":35.146738,"lon":137.7197,"pref":"愛知県","city":"北設楽郡豊根村"},
{"id":"1117","lat":34.718596,"lon":136.505698,"pref":"三重県","city":"津市"},
{"id":"1118","lat":34.965157,"lon":136.624485,"pref":"三重県","city":"四日市市"},
{"id":"1119","lat":34.487514,"lon":136.709336,"pref":"三重県","city":"伊勢市"},
{"id":"1120","lat":34.577993,"lon":136.527593,"pref":"三重県","city":"松阪市"},
{"id":"1121","lat":35.062216,"lon":136.683803,"pref":"三重県","city":"桑名市"},
{"id":"1122","lat":34.88188,"lon":136.584209,"pref":"三重県","city":"鈴鹿市"},
{"id":"1123","lat":34.627659,"lon":136.108296,"pref":"三重県","city":"名張市"},
{"id":"1124","lat":34.070799,"lon":136.190995,"pref":"三重県","city":"尾鷲市"},
{"id":"1125","lat":34.855755,"lon":136.451645,"pref":"三重県","city":"亀山市"},
{"id":"1126","lat":34.481435,"lon":136.843362,"pref":"三重県","city":"鳥羽市"},
{"id":"1127","lat":33.888604,"lon":136.100237,"pref":"三重県","city":"熊野市"},
{"id":"1128","lat":35.115701,"lon":136.561471,"pref":"三重県","city":"いなべ市"},
{"id":"1129","lat":34.32816,"lon":136.829691,"pref":"三重県","city":"志摩市"},
{"id":"1130","lat":34.768595,"lon":136.12991,"pref":"三重県","city":"伊賀市"},
{"id":"1131","lat":35.07598,"lon":136.731328,"pref":"三重県","city":"桑名郡木曽岬町"},
{"id":"1132","lat":35.074257,"lon":136.583578,"pref":"三重県","city":"員弁郡東員町"},
{"id":"1133","lat":35.020068,"lon":136.507344,"pref":"三重県","city":"三重郡菰野町"},
{"id":"1134","lat":35.03421,"lon":136.664352,"pref":"三重県","city":"三重郡朝日町"},
{"id":"1135","lat":35.023009,"lon":136.673865,"pref":"三重県","city":"三重郡川越町"},
{"id":"1136","lat":34.496153,"lon":136.546146,"pref":"三重県","city":"多気郡多気町"},
{"id":"1137","lat":34.54756,"lon":136.623176,"pref":"三重県","city":"多気郡明和町"},
{"id":"1138","lat":34.393387,"lon":136.407875,"pref":"三重県","city":"多気郡大台町"},
{"id":"1139","lat":34.490278,"lon":136.630929,"pref":"三重県","city":"度会郡玉城町"},
{"id":"1140","lat":34.438923,"lon":136.622466,"pref":"三重県","city":"度会郡度会町"},
{"id":"1141","lat":34.358045,"lon":136.415792,"pref":"三重県","city":"度会郡大紀町"},
{"id":"1142","lat":34.352095,"lon":136.703689,"pref":"三重県","city":"度会郡南伊勢町"},
{"id":"1143","lat":34.211533,"lon":136.337313,"pref":"三重県","city":"北牟婁郡紀北町"},
{"id":"1144","lat":33.814478,"lon":136.048724,"pref":"三重県","city":"南牟婁郡御浜町"},
{"id":"1145","lat":33.733773,"lon":136.00967,"pref":"三重県","city":"南牟婁郡紀宝町"},
{"id":"1146","lat":35.017893,"lon":135.854607,"pref":"滋賀県","city":"大津市"},
{"id":"1147","lat":35.274461,"lon":136.259623,"pref":"滋賀県","city":"彦根市"},
{"id":"1148","lat":35.380815,"lon":136.278722,"pref":"滋賀県","city":"長浜市"},
{"id":"1149","lat":35.128339,"lon":136.097907,"pref":"滋賀県","city":"近江八幡市"},
{"id":"1150","lat":35.013134,"lon":135.959936,"pref":"滋賀県","city":"草津市"},
{"id":"1151","lat":35.05894,"lon":135.994404,"pref":"滋賀県","city":"守山市"},
{"id":"1152","lat":35.021617,"lon":135.997996,"pref":"滋賀県","city":"栗東市"},
{"id":"1153","lat":34.966139,"lon":136.167092,"pref":"滋賀県","city":"甲賀市"},
{"id":"1154","lat":35.067454,"lon":136.02585,"pref":"滋賀県","city":"野洲市"},
{"id":"1155","lat":35.00415,"lon":136.084679,"pref":"滋賀県","city":"湖南市"},
{"id":"1156","lat":35.353071,"lon":136.03583,"pref":"滋賀県","city":"高島市"},
{"id":"1157","lat":35.112456,"lon":136.207765,"pref":"滋賀県","city":"東近江市"},
{"id":"1158","lat":35.361585,"lon":136.370192,"pref":"滋賀県","city":"米原市"},
{"id":"1159","lat":35.018003,"lon":136.246043,"pref":"滋賀県","city":"蒲生郡日野町"},
{"id":"1160","lat":35.060803,"lon":136.124535,"pref":"滋賀県","city":"蒲生郡竜王町"},
{"id":"1161","lat":35.16894,"lon":136.212367,"pref":"滋賀県","city":"愛知郡愛荘町"},
{"id":"1162","lat":35.200343,"lon":136.229893,"pref":"滋賀県","city":"犬上郡豊郷町"},
{"id":"1163","lat":35.204119,"lon":136.261205,"pref":"滋賀県","city":"犬上郡甲良町"},
{"id":"1164","lat":35.221996,"lon":136.292049,"pref":"滋賀県","city":"犬上郡多賀町"},
{"id":"1165","lat":35.041053,"lon":135.753983,"pref":"京都府","city":"京都市北区"},
{"id":"1166","lat":35.029618,"lon":135.756627,"pref":"京都府","city":"京都市上京区"},
{"id":"1167","lat":35.048569,"lon":135.778548,"pref":"京都府","city":"京都市左京区"},
{"id":"1168","lat":35.010425,"lon":135.751411,"pref":"京都府","city":"京都市中京区"},
{"id":"1169","lat":34.997057,"lon":135.776162,"pref":"京都府","city":"京都市東山区"},
{"id":"1170","lat":34.987655,"lon":135.755533,"pref":"京都府","city":"京都市下京区"},
{"id":"1171","lat":34.976661,"lon":135.746495,"pref":"京都府","city":"京都市南区"},
{"id":"1172","lat":35.010133,"lon":135.716078,"pref":"京都府","city":"京都市右京区"},
{"id":"1173","lat":34.93603,"lon":135.76141,"pref":"京都府","city":"京都市伏見区"},
{"id":"1174","lat":34.972336,"lon":135.813697,"pref":"京都府","city":"京都市山科区"},
{"id":"1175","lat":34.985104,"lon":135.69342,"pref":"京都府","city":"京都市西京区"},
{"id":"1176","lat":35.2967,"lon":135.126563,"pref":"京都府","city":"福知山市"},
{"id":"1177","lat":35.474797,"lon":135.385992,"pref":"京都府","city":"舞鶴市"},
{"id":"1178","lat":35.298916,"lon":135.258812,"pref":"京都府","city":"綾部市"},
{"id":"1179","lat":34.884461,"lon":135.799854,"pref":"京都府","city":"宇治市"},
{"id":"1180","lat":35.535577,"lon":135.195567,"pref":"京都府","city":"宮津市"},
{"id":"1181","lat":35.013408,"lon":135.573609,"pref":"京都府","city":"亀岡市"},
{"id":"1182","lat":34.853008,"lon":135.779974,"pref":"京都府","city":"城陽市"},
{"id":"1183","lat":34.948736,"lon":135.698288,"pref":"京都府","city":"向日市"},
{"id":"1184","lat":34.926771,"lon":135.695785,"pref":"京都府","city":"長岡京市"},
{"id":"1185","lat":34.875555,"lon":135.707621,"pref":"京都府","city":"八幡市"},
{"id":"1186","lat":34.814459,"lon":135.767695,"pref":"京都府","city":"京田辺市"},
{"id":"1187","lat":35.624166,"lon":135.061,"pref":"京都府","city":"京丹後市"},
{"id":"1188","lat":35.107374,"lon":135.47026,"pref":"京都府","city":"南丹市"},
{"id":"1189","lat":34.737162,"lon":135.820117,"pref":"京都府","city":"木津川市"},
{"id":"1190","lat":34.902806,"lon":135.688476,"pref":"京都府","city":"乙訓郡大山崎町"},
{"id":"1191","lat":34.8815,"lon":135.732607,"pref":"京都府","city":"久世郡久御山町"},
{"id":"1192","lat":34.798408,"lon":135.803306,"pref":"京都府","city":"綴喜郡井手町"},
{"id":"1193","lat":34.85267,"lon":135.856855,"pref":"京都府","city":"綴喜郡宇治田原町"},
{"id":"1194","lat":34.76045,"lon":135.939366,"pref":"京都府","city":"相楽郡笠置町"},
{"id":"1195","lat":34.79571,"lon":135.90488,"pref":"京都府","city":"相楽郡和束町"},
{"id":"1196","lat":34.760856,"lon":135.785833,"pref":"京都府","city":"相楽郡精華町"},
{"id":"1197","lat":34.772789,"lon":135.993537,"pref":"京都府","city":"相楽郡南山城村"},
{"id":"1198","lat":35.164362,"lon":135.423055,"pref":"京都府","city":"船井郡京丹波町"},
{"id":"1199","lat":35.675146,"lon":135.272639,"pref":"京都府","city":"与謝郡伊根町"},
{"id":"1200","lat":35.565309,"lon":135.152841,"pref":"京都府","city":"与謝郡与謝野町"},
{"id":"1201","lat":34.701279,"lon":135.52809,"pref":"大阪府","city":"大阪市都島区"},
{"id":"1202","lat":34.692337,"lon":135.472229,"pref":"大阪府","city":"大阪市福島区"},
{"id":"1203","lat":34.683049,"lon":135.452328,"pref":"大阪府","city":"大阪市此花区"},
{"id":"1204","lat":34.676231,"lon":135.486059,"pref":"大阪府","city":"大阪市西区"},
{"id":"1205","lat":34.663918,"lon":135.460681,"pref":"大阪府","city":"大阪市港区"},
{"id":"1206","lat":34.650403,"lon":135.4727,"pref":"大阪府","city":"大阪市大正区"},
{"id":"1207","lat":34.657917,"lon":135.519362,"pref":"大阪府","city":"大阪市天王寺区"},
{"id":"1208","lat":34.659444,"lon":135.49963,"pref":"大阪府","city":"大阪市浪速区"},
{"id":"1209","lat":34.711348,"lon":135.456202,"pref":"大阪府","city":"大阪市西淀川区"},
{"id":"1210","lat":34.741214,"lon":135.529423,"pref":"大阪府","city":"大阪市東淀川区"},
{"id":"1211","lat":34.670002,"lon":135.541268,"pref":"大阪府","city":"大阪市東成区"},
{"id":"1212","lat":34.653751,"lon":135.534413,"pref":"大阪府","city":"大阪市生野区"},
{"id":"1213","lat":34.721177,"lon":135.54422,"pref":"大阪府","city":"大阪市旭区"},
{"id":"1214","lat":34.70189,"lon":135.545973,"pref":"大阪府","city":"大阪市城東区"},
{"id":"1215","lat":34.638969,"lon":135.518496,"pref":"大阪府","city":"大阪市阿倍野区"},
{"id":"1216","lat":34.603673,"lon":135.500632,"pref":"大阪府","city":"大阪市住吉区"},
{"id":"1217","lat":34.622163,"lon":135.526601,"pref":"大阪府","city":"大阪市東住吉区"},
{"id":"1218","lat":34.634872,"lon":135.494373,"pref":"大阪府","city":"大阪市西成区"},
{"id":"1219","lat":34.721026,"lon":135.486711,"pref":"大阪府","city":"大阪市淀川区"},
{"id":"1220","lat":34.704329,"lon":135.574198,"pref":"大阪府","city":"大阪市鶴見区"},
{"id":"1221","lat":34.609675,"lon":135.482742,"pref":"大阪府","city":"大阪市住之江区"},
{"id":"1222","lat":34.621199,"lon":135.546072,"pref":"大阪府","city":"大阪市平野区"},
{"id":"1223","lat":34.705362,"lon":135.510025,"pref":"大阪府","city":"大阪市北区"},
{"id":"1224","lat":34.681261,"lon":135.509801,"pref":"大阪府","city":"大阪市中央区"},
{"id":"1225","lat":34.573254,"lon":135.483101,"pref":"大阪府","city":"堺市堺区"},
{"id":"1226","lat":34.528342,"lon":135.498636,"pref":"大阪府","city":"堺市中区"},
{"id":"1227","lat":34.538192,"lon":135.536591,"pref":"大阪府","city":"堺市東区"},
{"id":"1228","lat":34.534999,"lon":135.463972,"pref":"大阪府","city":"堺市西区"},
{"id":"1229","lat":34.486527,"lon":135.490568,"pref":"大阪府","city":"堺市南区"},
{"id":"1230","lat":34.56535,"lon":135.517178,"pref":"大阪府","city":"堺市北区"},
{"id":"1231","lat":34.538545,"lon":135.559833,"pref":"大阪府","city":"堺市美原区"},
{"id":"1232","lat":34.460634,"lon":135.370829,"pref":"大阪府","city":"岸和田市"},
{"id":"1233","lat":34.781266,"lon":135.469739,"pref":"大阪府","city":"豊中市"},
{"id":"1234","lat":34.821705,"lon":135.428444,"pref":"大阪府","city":"池田市"},
{"id":"1235","lat":34.759453,"lon":135.51686,"pref":"大阪府","city":"吹田市"},
{"id":"1236","lat":34.504279,"lon":135.410464,"pref":"大阪府","city":"泉大津市"},
{"id":"1237","lat":34.846159,"lon":135.617272,"pref":"大阪府","city":"高槻市"},
{"id":"1238","lat":34.437584,"lon":135.358517,"pref":"大阪府","city":"貝塚市"},
{"id":"1239","lat":34.737695,"lon":135.563904,"pref":"大阪府","city":"守口市"},
{"id":"1240","lat":34.81434,"lon":135.650658,"pref":"大阪府","city":"枚方市"},
{"id":"1241","lat":34.816338,"lon":135.568505,"pref":"大阪府","city":"茨木市"},
{"id":"1242","lat":34.626864,"lon":135.600978,"pref":"大阪府","city":"八尾市"},
{"id":"1243","lat":34.406848,"lon":135.327337,"pref":"大阪府","city":"泉佐野市"},
{"id":"1244","lat":34.499527,"lon":135.597128,"pref":"大阪府","city":"富田林市"},
{"id":"1245","lat":34.766093,"lon":135.6281,"pref":"大阪府","city":"寝屋川市"},
{"id":"1246","lat":34.458084,"lon":135.564226,"pref":"大阪府","city":"河内長野市"},
{"id":"1247","lat":34.577879,"lon":135.55185,"pref":"大阪府","city":"松原市"},
{"id":"1248","lat":34.712015,"lon":135.623659,"pref":"大阪府","city":"大東市"},
{"id":"1249","lat":34.483527,"lon":135.423557,"pref":"大阪府","city":"和泉市"},
{"id":"1250","lat":34.82693,"lon":135.470463,"pref":"大阪府","city":"箕面市"},
{"id":"1251","lat":34.579305,"lon":135.628642,"pref":"大阪府","city":"柏原市"},
{"id":"1252","lat":34.558035,"lon":135.606212,"pref":"大阪府","city":"羽曳野市"},
{"id":"1253","lat":34.739542,"lon":135.58689,"pref":"大阪府","city":"門真市"},
{"id":"1254","lat":34.777356,"lon":135.561817,"pref":"大阪府","city":"摂津市"},
{"id":"1255","lat":34.520717,"lon":135.442452,"pref":"大阪府","city":"高石市"},
{"id":"1256","lat":34.574277,"lon":135.597474,"pref":"大阪府","city":"藤井寺市"},
{"id":"1257","lat":34.67933,"lon":135.601012,"pref":"大阪府","city":"東大阪市"},
{"id":"1258","lat":34.366005,"lon":135.273339,"pref":"大阪府","city":"泉南市"},
{"id":"1259","lat":34.739941,"lon":135.639533,"pref":"大阪府","city":"四條畷市"},
{"id":"1260","lat":34.787944,"lon":135.679953,"pref":"大阪府","city":"交野市"},
{"id":"1261","lat":34.503795,"lon":135.555693,"pref":"大阪府","city":"大阪狭山市"},
{"id":"1262","lat":34.359583,"lon":135.23967,"pref":"大阪府","city":"阪南市"},
{"id":"1263","lat":34.883925,"lon":135.66297,"pref":"大阪府","city":"三島郡島本町"},
{"id":"1264","lat":34.918948,"lon":135.494174,"pref":"大阪府","city":"豊能郡豊能町"},
{"id":"1265","lat":34.972551,"lon":135.414274,"pref":"大阪府","city":"豊能郡能勢町"},
{"id":"1266","lat":34.487093,"lon":135.401323,"pref":"大阪府","city":"泉北郡忠岡町"},
{"id":"1267","lat":34.401283,"lon":135.355785,"pref":"大阪府","city":"泉南郡熊取町"},
{"id":"1268","lat":34.393774,"lon":135.291174,"pref":"大阪府","city":"泉南郡田尻町"},
{"id":"1269","lat":34.316978,"lon":135.142139,"pref":"大阪府","city":"泉南郡岬町"},
{"id":"1270","lat":34.518682,"lon":135.647661,"pref":"大阪府","city":"南河内郡太子町"},
{"id":"1271","lat":34.491637,"lon":135.629699,"pref":"大阪府","city":"南河内郡河南町"},
{"id":"1272","lat":34.464587,"lon":135.622537,"pref":"大阪府","city":"南河内郡千早赤阪村"},
{"id":"1273","lat":34.720228,"lon":135.265455,"pref":"兵庫県","city":"神戸市東灘区"},
{"id":"1274","lat":34.712329,"lon":135.239657,"pref":"兵庫県","city":"神戸市灘区"},
{"id":"1275","lat":34.680578,"lon":135.165291,"pref":"兵庫県","city":"神戸市兵庫区"},
{"id":"1276","lat":34.665638,"lon":135.151026,"pref":"兵庫県","city":"神戸市長田区"},
{"id":"1277","lat":34.658633,"lon":135.1337,"pref":"兵庫県","city":"神戸市須磨区"},
{"id":"1278","lat":34.630252,"lon":135.056766,"pref":"兵庫県","city":"神戸市垂水区"},
{"id":"1279","lat":34.727317,"lon":135.14444,"pref":"兵庫県","city":"神戸市北区"},
{"id":"1280","lat":34.695124,"lon":135.197852,"pref":"兵庫県","city":"神戸市中央区"},
{"id":"1281","lat":34.683239,"lon":134.981602,"pref":"兵庫県","city":"神戸市西区"},
{"id":"1282","lat":34.815149,"lon":134.685353,"pref":"兵庫県","city":"姫路市"},
{"id":"1283","lat":34.733734,"lon":135.406376,"pref":"兵庫県","city":"尼崎市"},
{"id":"1284","lat":34.643107,"lon":134.997179,"pref":"兵庫県","city":"明石市"},
{"id":"1285","lat":34.737597,"lon":135.341564,"pref":"兵庫県","city":"西宮市"},
{"id":"1286","lat":34.342426,"lon":134.89562,"pref":"兵庫県","city":"洲本市"},
{"id":"1287","lat":34.72695,"lon":135.304162,"pref":"兵庫県","city":"芦屋市"},
{"id":"1288","lat":34.784306,"lon":135.400947,"pref":"兵庫県","city":"伊丹市"},
{"id":"1289","lat":34.803601,"lon":134.468066,"pref":"兵庫県","city":"相生市"},
{"id":"1290","lat":35.544575,"lon":134.820181,"pref":"兵庫県","city":"豊岡市"},
{"id":"1291","lat":34.75695,"lon":134.841177,"pref":"兵庫県","city":"加古川市"},
{"id":"1292","lat":34.754956,"lon":134.390284,"pref":"兵庫県","city":"赤穂市"},
{"id":"1293","lat":34.993355,"lon":134.969189,"pref":"兵庫県","city":"西脇市"},
{"id":"1294","lat":34.799767,"lon":135.360073,"pref":"兵庫県","city":"宝塚市"},
{"id":"1295","lat":34.796944,"lon":134.990197,"pref":"兵庫県","city":"三木市"},
{"id":"1296","lat":34.766201,"lon":134.790442,"pref":"兵庫県","city":"高砂市"},
{"id":"1297","lat":34.830135,"lon":135.417278,"pref":"兵庫県","city":"川西市"},
{"id":"1298","lat":34.853193,"lon":134.931376,"pref":"兵庫県","city":"小野市"},
{"id":"1299","lat":34.889996,"lon":135.225453,"pref":"兵庫県","city":"三田市"},
{"id":"1300","lat":34.927936,"lon":134.841622,"pref":"兵庫県","city":"加西市"},
{"id":"1301","lat":35.075661,"lon":135.219051,"pref":"兵庫県","city":"丹波篠山市"},
{"id":"1302","lat":35.404657,"lon":134.767671,"pref":"兵庫県","city":"養父市"},
{"id":"1303","lat":35.1771,"lon":135.035854,"pref":"兵庫県","city":"丹波市"},
{"id":"1304","lat":34.29448,"lon":134.779855,"pref":"兵庫県","city":"南あわじ市"},
{"id":"1305","lat":35.339665,"lon":134.85315,"pref":"兵庫県","city":"朝来市"},
{"id":"1306","lat":34.439699,"lon":134.915016,"pref":"兵庫県","city":"淡路市"},
{"id":"1307","lat":35.004417,"lon":134.549466,"pref":"兵庫県","city":"宍粟市"},
{"id":"1308","lat":34.918573,"lon":134.973381,"pref":"兵庫県","city":"加東市"},
{"id":"1309","lat":34.857863,"lon":134.54536,"pref":"兵庫県","city":"たつの市"},
{"id":"1310","lat":34.895037,"lon":135.376162,"pref":"兵庫県","city":"川辺郡猪名川町"},
{"id":"1311","lat":35.050335,"lon":134.923275,"pref":"兵庫県","city":"多可郡多可町"},
{"id":"1312","lat":34.748807,"lon":134.913551,"pref":"兵庫県","city":"加古郡稲美町"},
{"id":"1313","lat":34.715299,"lon":134.867912,"pref":"兵庫県","city":"加古郡播磨町"},
{"id":"1314","lat":34.989368,"lon":134.763317,"pref":"兵庫県","city":"神崎郡市川町"},
{"id":"1315","lat":34.950302,"lon":134.760248,"pref":"兵庫県","city":"神崎郡福崎町"},
{"id":"1316","lat":35.064226,"lon":134.739831,"pref":"兵庫県","city":"神崎郡神河町"},
{"id":"1317","lat":34.833264,"lon":134.572255,"pref":"兵庫県","city":"揖保郡太子町"},
{"id":"1318","lat":34.873563,"lon":134.356098,"pref":"兵庫県","city":"赤穂郡上郡町"},